{"status": "success", "currentPage": 444, "totalResults": 34116, "data": [{"status": "verified", "isOrganic": "N", "statusDisplay": "Verified", "createDate": "2012-01-03 02:43:53", "breweries": [{"status": "verified", "isOrganic": "N", "statusDisplay": "Verified", "createDate": "2012-01-03 02:41:59", "locations": [{"inPlanning": "N", "countryIsoCode": "DE", "name": "Main Brewery", "locality": "Neuhaus", "openToPublic": "Y", "locationType": "micro", "region": "Bayern", "longitude": 11.54975, "isClosed": "N", "phone": "49-(0)9156-/-88-0", "streetAddress": "Oberer Markt 1", "createDate": "2012-01-03 02:41:59", "status": "verified", "updateDate": "2014-07-23 19:11:34", "country": {"displayName": "Germany", "name": "GERMANY", "isoThree": "DEU", "createDate": "2012-01-03 02:41:33", "numberCode": 276, "isoCode": "DE"}, "latitude": 49.62828, "isPrimary": "Y", "id": "ZNwc2R", "locationTypeDisplay": "Micro Brewery", "statusDisplay": "Verified"}], "updateDate": "2012-03-21 19:06:07", "id": "va8sn2", "name": "Kaiser-Bru"}], "updateDate": "2012-03-22 13:04:51", "abv": "4.9", "id": "LGwKP5", "name": "Original Lager"}, {"status": "verified", "available": {"description": "Available year round as a staple beer.", "id": 1, "name": "Year Round"}, "isOrganic": "N", "breweries": [{"website": "http://www.weihenstephaner.de/", "established": "1040", "isOrganic": "N", "description": "The Bavarian State Brewery Weihenstephan, founded in 1040, is the oldest existing brewery in the world. As directed by operation of Bavaria it is run as a modern company, which brews beers of the highest quality and successfully sells worldwide in over 40 countries. The unique combination of tradition and science gives the brewer the quality standard \"premium bavaricum\" and national and international awards for their \"Weihenstephan beers.\"", "statusDisplay": "Verified", "createDate": "2012-01-03 02:41:45", "locations": [{"status": "verified", "openToPublic": "Y", "isPrimary": "Y", "hoursOfOperation": "Mon: 6:00 am - 6:00 pm\r\nTue: 5:00 am - 6:00 am, 3:00 pm - 11:00 pm\r\nWed: 6:00 am - 7:00 pm\r\nThu - Fri: 5:00 am - 10:00 pm\r\nSat - Sun: 11:00 am - 10:00 pm", "locationTypeDisplay": "Micro Brewery", "inPlanning": "N", "locality": "Wissenschaftszentrum Weihenstephan", "createDate": "2012-01-03 02:41:45", "id": "SZiCtP", "streetAddress": "Alte Akademie 2", "postalCode": "85354", "website": "http://www.weihenstephaner.de/", "statusDisplay": "Verified", "countryIsoCode": "DE", "phone": "49-(0)8161-/-536-0", "isClosed": "N", "name": "Main Brewery", "latitude": 48.395173, "locationType": "micro", "region": "Freising", "longitude": 11.72903, "updateDate": "2014-07-23 19:11:34", "country": {"displayName": "Germany", "name": "GERMANY", "isoThree": "DEU", "createDate": "2012-01-03 02:41:33", "numberCode": 276, "isoCode": "DE"}}], "status": "verified", "updateDate": "2012-07-13 12:59:42", "images": {"large": "https://s3.amazonaws.com/brewerydbapi/brewery/NzbBOK/upload_nsiLwx-large.png", "medium": "https://s3.amazonaws.com/brewerydbapi/brewery/NzbBOK/upload_nsiLwx-medium.png", "icon": "https://s3.amazonaws.com/brewerydbapi/brewery/NzbBOK/upload_nsiLwx-icon.png"}, "id": "NzbBOK", "name": "Bayerische Staatsbrauerei Weihenstephan"}], "name": "Original Lager", "statusDisplay": "Verified", "createDate": "2012-01-03 02:43:53", "labels": {"large": "https://s3.amazonaws.com/brewerydbapi/beer/ZyuzKm/upload_4bWoDE-large.png", "medium": "https://s3.amazonaws.com/brewerydbapi/beer/ZyuzKm/upload_4bWoDE-medium.png", "icon": "https://s3.amazonaws.com/brewerydbapi/beer/ZyuzKm/upload_4bWoDE-icon.png"}, "style": {"category": {"createDate": "2012-03-21 20:06:46", "id": 7, "name": "European-germanic Lager"}, "ogMin": "1.044", "description": "This beer should be perceived as having low bitterness. It is a medium-bodied, malt-emphasized beer with malt character often balanced with low levels of yeast produced sulfur compounds (character). Certain renditions of this beer style have  a perceivable level of hop flavor (note: hop flavor does not imply hop bitterness) and character but it is essentially balanced with malt character to retain its style identity. Malt character is sometimes bread-like yet always reminiscent of freshly and very lightly toasted malted barley. There should not be any caramel character. Color is light straw to golden. Fruity esters and diacetyl should not be perceived. There should be no chill haze.", "createDate": "2012-03-21 20:06:46", "ibuMin": "18", "categoryId": 7, "srmMax": "6", "ibuMax": "25", "abvMin": "4.5", "fgMin": "1.008", "fgMax": "1.012", "abvMax": "5.5", "id": 78, "srmMin": "4", "name": "M\u00fcnchner (Munich)-Style Helles"}, "servingTemperature": "cold", "glass": {"createDate": "2012-01-03 02:41:33", "id": 3, "name": "Mug"}, "servingTemperatureDisplay": "Cold - (4-7C/39-45F)", "updateDate": "2014-05-13 10:53:53", "abv": "5.1", "styleId": 78, "availableId": 1, "id": "ZyuzKm", "glasswareId": 3}, {"status": "verified", "available": {"description": "Available year round as a staple beer.", "id": 1, "name": "Year Round"}, "isOrganic": "N", "description": "Our premium North American style lager. Refreshing, thirst quenching, slightly sweet malty profile, clean finish", "name": "Original Lager", "glass": {"createDate": "2012-01-03 02:41:33", "id": 5, "name": "Pint"}, "createDate": "2012-08-11 18:37:42", "breweries": [{"website": "http://brewsters.ca/", "status": "verified", "isOrganic": "N", "description": "Each one of Brewsters handcrafted ales and lagers is brewed using only the finest ingredients \u2013 barley from Alberta and imported specialty grains from Great Britain. Each brew is produced in small batches by skilled brewers. We brew each brand frequently so they\u2019re always fresh.", "statusDisplay": "Verified", "createDate": "2012-01-03 02:42:14", "locations": [{"status": "verified", "openToPublic": "Y", "isPrimary": "N", "hoursOfOperation": "Mon:  11:00am - 12:00am\nSun:  11:00am - 12:00am\nTue:  11:00am - 1:00am\nWed:  11:00am - 1:00am\nThu:  11:00am - 1:00am\nFri:  11:00am - 1:00am\nSat:  11:00am - 1:00am\n\nSunday & Monday: 11:00am \u2013 12:00am\r\nTuesday to Saturday: 11:00am \u2013 1:00am", "locationTypeDisplay": "Brewpub", "inPlanning": "N", "locality": "Airdrie", "createDate": "2012-01-03 02:42:14", "id": "u8Rbm0", "streetAddress": "200 3 Stonegate Dr. N.W.", "postalCode": "T4B 0N2", "website": "http://brewsters.ca/locations/200-3-stonegate/", "statusDisplay": "Verified", "countryIsoCode": "CA", "phone": "403-945-2739", "isClosed": "N", "name": "Airdrie", "latitude": 51.3009224, "locationType": "brewpub", "region": "Alberta", "longitude": -114.0141165, "updateDate": "2014-09-29 20:36:49", "country": {"displayName": "Canada", "name": "CANADA", "isoThree": "CAN", "createDate": "2012-01-03 02:41:33", "numberCode": 124, "isoCode": "CA"}}, {"status": "verified", "openToPublic": "Y", "isPrimary": "N", "hoursOfOperation": "Mon:  11:00am - 12:00am\nTue:  11:00am - 1:00am\nWed:  11:00am - 1:00am\nThu:  11:00am - 1:00am\nFri:  11:00am - 1:00am\nSat:  11:00am - 1:00am\nSun:  10:00am - 12:00am\n\nMonday: 11:00am \u2013 12:00am\r\nTuesday to Thursday: 11:00am \u2013 1:00am\r\nFriday & Saturday: 11:00am \u2013 1:00am\r\nSunday: 10:00am \u2013 12:00am", "locationTypeDisplay": "Brewpub", "inPlanning": "N", "locality": "Edmonton", "createDate": "2012-01-03 02:42:14", "id": "WSAPvR", "streetAddress": "15327 Castledowns Road", "postalCode": "T5X 6C3", "website": "http://brewsters.ca/locations/15327-castledowns-road/", "statusDisplay": "Verified", "countryIsoCode": "CA", "phone": "780-425-4677", "isClosed": "N", "name": "Castledowns", "latitude": 53.6161732, "locationType": "brewpub", "region": "Alberta", "longitude": -113.5150086, "updateDate": "2014-09-29 20:36:50", "country": {"displayName": "Canada", "name": "CANADA", "isoThree": "CAN", "createDate": "2012-01-03 02:41:33", "numberCode": 124, "isoCode": "CA"}}, {"status": "verified", "openToPublic": "Y", "isPrimary": "N", "hoursOfOperation": "Mon:  11:00am - 12:00am\nSun:  11:00am - 12:00am\nTue:  11:00am - 1:00am\nWed:  11:00am - 1:00am\nThu:  11:00am - 1:00am\nFri:  11:00am - 1:00am\nSat:  11:00am - 1:00am\n\nSunday & Monday: 11:00am \u2013 12:00am\r\nTuesday to Saturday: 11:00am \u2013 1:00am", "locationTypeDisplay": "Brewpub", "inPlanning": "N", "locality": "Edmonton", "createDate": "2012-01-03 02:42:14", "id": "8ltE4s", "streetAddress": "2335 111 Street", "postalCode": "T6J 5E5", "website": "http://brewsters.ca/locations/2335-111-street/", "statusDisplay": "Verified", "countryIsoCode": "CA", "phone": "780-429-4677", "isClosed": "N", "name": "Century Park", "latitude": 53.4553349, "locationType": "brewpub", "region": "Alberta", "longitude": -113.516099, "updateDate": "2014-09-29 20:36:51", "country": {"displayName": "Canada", "name": "CANADA", "isoThree": "CAN", "createDate": "2012-01-03 02:41:33", "numberCode": 124, "isoCode": "CA"}}, {"status": "verified", "openToPublic": "Y", "isPrimary": "N", "hoursOfOperation": "Sun:  11:00am - 12:00am\nFri:  11:00am - 1:00am\nSat:  11:00am - 1:00am\n\nSunday to Thursday: 11:00am \u2013 12:00am\r\nFriday & Saturday: 11:00am \u2013 1:00am", "locationTypeDisplay": "Brewpub", "inPlanning": "N", "locality": "Calgary", "createDate": "2012-01-03 02:42:14", "id": "l5c2EJ", "streetAddress": "25 Crowfoot Terrace N.W.", "postalCode": "T3G 4J8", "website": "http://brewsters.ca/locations/25-crowfoot-terrace-n-w/", "statusDisplay": "Verified", "countryIsoCode": "CA", "phone": "403-208-2739", "isClosed": "N", "name": "Crowfoot", "latitude": 51.1269891, "locationType": "brewpub", "region": "Alberta", "longitude": -114.19933, "updateDate": "2014-09-29 20:36:52", "country": {"displayName": "Canada", "name": "CANADA", "isoThree": "CAN", "createDate": "2012-01-03 02:41:33", "numberCode": 124, "isoCode": "CA"}}, {"status": "verified", "openToPublic": "Y", "isPrimary": "N", "hoursOfOperation": "Mon:  11:00am - 12:00am\nSun:  11:00am - 12:00am\nTue:  11:00am - 1:00am\nWed:  11:00am - 1:00am\nThu:  11:00am - 1:00am\nFri:  11:00am - 2:00am\nSat:  11:00am - 2:00am\n\nSunday & Monday: 11:00am \u2013 12:00am\r\nTuesday to Thursday: 11:00am \u2013 1:00am\r\nFriday & Saturday: 11:00am \u2013 2:00am", "locationTypeDisplay": "Brewpub", "inPlanning": "N", "locality": "Calgary", "createDate": "2012-01-03 02:42:14", "id": "NPKqNk", "streetAddress": "834 11 Avenue S.W.", "postalCode": "T2R 0E5", "website": "http://brewsters.ca/locations/804-2-st-sw/", "statusDisplay": "Verified", "countryIsoCode": "CA", "phone": "403-265-2739", "isClosed": "N", "name": "Eleventh Avenue", "latitude": 51.0428907, "locationType": "brewpub", "region": "Alberta", "longitude": -114.0811098, "updateDate": "2014-09-29 20:36:53", "country": {"displayName": "Canada", "name": "CANADA", "isoThree": "CAN", "createDate": "2012-01-03 02:41:33", "numberCode": 124, "isoCode": "CA"}}, {"status": "verified", "openToPublic": "Y", "isPrimary": "N", "hoursOfOperation": "Monday & Wednesday: 11:00am \u2013 9:00pm\r\nTuesday & Thursday: 11:00am \u2013 10:00pm\r\nFriday: 11:00am \u2013 12:00am\r\nSaturday: 11:00am \u2013 11:00pm\r\nSunday: 11:00am \u2013 9:00pm", "locationTypeDisplay": "Brewpub", "inPlanning": "N", "locality": "Calgary", "createDate": "2012-01-03 02:42:14", "id": "zj3eXB", "streetAddress": "5519 53rd Street S.E.", "postalCode": "T2C 4V1", "website": "http://brewsters.ca/locations/5519-53rd-street-s-e/", "statusDisplay": "Verified", "countryIsoCode": "CA", "phone": "403-723-2739", "isClosed": "N", "name": "Foothills", "latitude": 51.003304, "locationType": "brewpub", "region": "Alberta", "longitude": -113.9566984, "updateDate": "2014-07-23 19:11:34", "country": {"displayName": "Canada", "name": "CANADA", "isoThree": "CAN", "createDate": "2012-01-03 02:41:33", "numberCode": 124, "isoCode": "CA"}}, {"status": "verified", "openToPublic": "Y", "isPrimary": "N", "hoursOfOperation": "Sunday, Monday, Wednesday: 11:00am \u2013 12:00am\r\nTuesday, Thursday to Saturday: 11:00am \u2013 1:00am", "locationTypeDisplay": "Brewpub", "inPlanning": "N", "locality": "Calgary", "createDate": "2012-01-03 02:42:14", "id": "c2mSgc", "streetAddress": "176 755 Lake Bonavista Drive S.W", "postalCode": "T2J 0N3", "website": "http://brewsters.ca/locations/176-755-lake-bonavista-drive-s-w/", "statusDisplay": "Verified", "countryIsoCode": "CA", "phone": "403-225-2739", "isClosed": "N", "name": "Lake Bonavista", "latitude": 50.9424531, "locationType": "brewpub", "region": "Alberta", "longitude": -114.047124, "updateDate": "2014-07-23 19:11:34", "country": {"displayName": "Canada", "name": "CANADA", "isoThree": "CAN", "createDate": "2012-01-03 02:41:33", "numberCode": 124, "isoCode": "CA"}}, {"status": "deleted", "openToPublic": "N", "isPrimary": "N", "id": "EMVGq3", "locationTypeDisplay": "Brewpub", "inPlanning": "N", "locality": "Regina", "createDate": "2012-01-03 02:42:14", "streetAddress": "4180 Albert Street", "postalCode": "S4S 3R8", "website": "http://brewsters.ca/", "statusDisplay": "Deleted", "countryIsoCode": "CA", "phone": "306-757-2739", "isClosed": "N", "name": "Landmark", "latitude": 50.4123178, "locationType": "brewpub", "region": "Saskatchewan", "longitude": -104.6182284, "updateDate": "2014-07-23 19:11:34", "country": {"displayName": "Canada", "name": "CANADA", "isoThree": "CAN", "createDate": "2012-01-03 02:41:33", "numberCode": 124, "isoCode": "CA"}}, {"status": "verified", "openToPublic": "Y", "isPrimary": "N", "hoursOfOperation": "Sunday & Monday: 11:00am \u2013 12:00am\r\nTuesday to Saturday: 11:00am \u2013 1:00am", "locationTypeDisplay": "Brewpub", "inPlanning": "N", "locality": "Calgary", "createDate": "2012-01-03 02:42:14", "id": "qgE4zU", "streetAddress": "100 11 Mckenzie Towne Blvd. S.E.", "postalCode": "T2Z 0S8", "website": "http://brewsters.ca/locations/100-11-mckenzie-towne-blvd-s-e/", "statusDisplay": "Verified", "countryIsoCode": "CA", "phone": "403-243-2739", "isClosed": "N", "name": "Mckenzie Towne", "latitude": 50.915527, "locationType": "brewpub", "region": "Alberta", "longitude": -113.9622626, "updateDate": "2014-07-23 19:11:34", "country": {"displayName": "Canada", "name": "CANADA", "isoThree": "CAN", "createDate": "2012-01-03 02:41:33", "numberCode": 124, "isoCode": "CA"}}, {"status": "verified", "openToPublic": "Y", "isPrimary": "N", "hoursOfOperation": "Monday: 11:00am \u2013 12:00am\r\nTuesday to Saturday: 11:00am \u2013 1:00am\r\nSunday: 11:00am \u2013 12:00am", "locationTypeDisplay": "Brewpub", "inPlanning": "N", "locality": "Edmonton", "createDate": "2012-01-03 02:42:14", "id": "Szwt8v", "streetAddress": "15820 87th Avenue", "postalCode": "T5R 5W9", "website": "http://brewsters.ca/locations/15820-87th-avenue/", "statusDisplay": "Verified", "countryIsoCode": "CA", "phone": "780-421-4677", "isClosed": "N", "name": "Meadowlark", "latitude": 53.5195529, "locationType": "brewpub", "region": "Alberta", "longitude": -113.5948204, "updateDate": "2014-07-23 19:11:34", "country": {"displayName": "Canada", "name": "CANADA", "isoThree": "CAN", "createDate": "2012-01-03 02:41:33", "numberCode": 124, "isoCode": "CA"}}, {"status": "verified", "openToPublic": "Y", "isPrimary": "N", "hoursOfOperation": "Monday, Wednesday: 11am \u2013 1:30am\r\nThursday to Friday: 11am \u2013 2:00am\r\nSaturday: 9:00am \u2013 2:00am\r\nSunday: 9:00am \u2013 12:00 midnight", "locationTypeDisplay": "Brewpub", "inPlanning": "N", "locality": "Regina", "createDate": "2012-01-03 02:42:14", "id": "5JfhIM", "streetAddress": "480 North McCarthy Blvd", "postalCode": "S4R 7M2", "website": "http://brewsters.ca/locations/480-north-mccarthy-boulevard/", "statusDisplay": "Verified", "countryIsoCode": "CA", "phone": "306-522-2739", "isClosed": "N", "name": "Normanview", "latitude": 50.4839194, "locationType": "brewpub", "region": "Saskatchewan", "longitude": -104.664093, "updateDate": "2014-07-23 19:11:34", "country": {"displayName": "Canada", "name": "CANADA", "isoThree": "CAN", "createDate": "2012-01-03 02:41:33", "numberCode": 124, "isoCode": "CA"}}, {"status": "verified", "openToPublic": "Y", "isPrimary": "N", "hoursOfOperation": "Monday: 11:00am \u2013 12:00am\r\nTuesday to Thursday: 11:00am \u2013 1:00am\r\nFriday & Saturday: 11:00am \u2013 2:00am\r\nSunday: 11:00am \u2013 12:00am", "locationTypeDisplay": "Brewpub", "inPlanning": "N", "locality": "Edmonton", "createDate": "2012-01-03 02:42:14", "id": "hdOVRn", "streetAddress": "11620 104th Avenue", "postalCode": "T5K 2T7", "website": "http://brewsters.ca/locations/11620-104th-avenue/", "statusDisplay": "Verified", "countryIsoCode": "CA", "phone": "780-482-4677", "isClosed": "N", "name": "Oliver Square", "latitude": 53.5463272, "locationType": "brewpub", "region": "Alberta", "longitude": -113.5232711, "updateDate": "2014-07-23 19:11:34", "country": {"displayName": "Canada", "name": "CANADA", "isoThree": "CAN", "createDate": "2012-01-03 02:41:33", "numberCode": 124, "isoCode": "CA"}}, {"status": "verified", "openToPublic": "Y", "isPrimary": "N", "hoursOfOperation": "Monday: 11:00am \u2013 12:00am\r\nSunday to Thursday: 11:00am \u2013 12:00am\r\nFriday & Saturday: 11:00am \u2013 1:00am", "locationTypeDisplay": "Brewpub", "inPlanning": "N", "locality": "Edmonton", "createDate": "2012-01-03 02:42:14", "id": "Jx7JbE", "streetAddress": "1140 91 Street SW", "postalCode": "T6X 0P2", "website": "http://brewsters.ca/locations/1140-91-street-sw/", "statusDisplay": "Verified", "countryIsoCode": "CA", "phone": "780-424-4677", "isClosed": "N", "name": "Summerside", "latitude": 53.4235218, "locationType": "brewpub", "region": "Alberta", "longitude": -113.4741277, "updateDate": "2014-07-23 19:11:34", "country": {"displayName": "Canada", "name": "CANADA", "isoThree": "CAN", "createDate": "2012-01-03 02:41:33", "numberCode": 124, "isoCode": "CA"}}, {"status": "verified", "openToPublic": "Y", "isPrimary": "N", "hoursOfOperation": "Monday \u2013 Wednesday: 11am \u2013 1:30am\r\nThursday \u2013 Saturday: 11am \u2013 2:00am\r\nSunday: 12:00 noon \u2013 12:00 midnight", "locationTypeDisplay": "Brewpub", "inPlanning": "N", "locality": "Regina", "createDate": "2012-01-03 02:42:14", "id": "wGq7kf", "streetAddress": "1832 Victoria Avenue East", "postalCode": "S4N 7K3", "website": "http://brewsters.ca/locations/1832-victoria-avenue-eas/", "statusDisplay": "Verified", "countryIsoCode": "CA", "phone": "306-761-1500", "isClosed": "N", "name": "Victoria East", "latitude": 50.4472063, "locationType": "brewpub", "region": "Saskatchewan", "longitude": -104.5596387, "updateDate": "2014-07-23 19:11:34", "country": {"displayName": "Canada", "name": "CANADA", "isoThree": "CAN", "createDate": "2012-01-03 02:41:33", "numberCode": 124, "isoCode": "CA"}}, {"status": "verified", "openToPublic": "Y", "isPrimary": "Y", "hoursOfOperation": "Monday \u2013 Wednesday: 11am \u2013 1:30am\r\nThursday \u2013 Saturday: 11am \u2013 2:00am\r\nSunday: 9:30am \u2013 12:00 midnight", "locationTypeDisplay": "Brewpub", "inPlanning": "N", "locality": "Regina", "createDate": "2012-08-11 02:50:40", "id": "xdWZOA", "streetAddress": "4189 Albert Street", "postalCode": "S4S 3R9", "website": "http://brewsters.ca/locations/4180-albert-street/", "statusDisplay": "Verified", "countryIsoCode": "CA", "phone": "306-757-2739", "isClosed": "N", "name": "Landmark", "latitude": 50.412581, "locationType": "brewpub", "region": "Saskatchewan", "longitude": -104.617923, "updateDate": "2014-07-23 19:11:34", "country": {"displayName": "Canada", "name": "CANADA", "isoThree": "CAN", "createDate": "2012-01-03 02:41:33", "numberCode": 124, "isoCode": "CA"}}], "updateDate": "2012-08-11 18:36:49", "images": {"large": "https://s3.amazonaws.com/brewerydbapi/brewery/7ffL9U/upload_bWU5aE-large.png", "medium": "https://s3.amazonaws.com/brewerydbapi/brewery/7ffL9U/upload_bWU5aE-medium.png", "icon": "https://s3.amazonaws.com/brewerydbapi/brewery/7ffL9U/upload_bWU5aE-icon.png"}, "id": "7ffL9U", "name": "Brewsters Brewing Company & Restaurant"}], "style": {"category": {"createDate": "2012-03-21 20:06:46", "id": 8, "name": "North American Lager"}, "ogMin": "1.044", "description": "This style has low malt (and adjunct) sweetness, is medium bodied, and should contain no or a low percentage (less than 25%) of adjuncts. Color may be light straw to golden. Alcohol content and bitterness may also be greater. Hop aroma and flavor is low or negligible. Light fruity esters are acceptable. Chill haze and diacetyl should be absent. Note: Some beers marketed as \"premium\" (based on price) may not fit this definition.", "createDate": "2012-03-21 20:06:46", "ibuMin": "6", "categoryId": 8, "srmMax": "6", "ibuMax": "15", "abvMin": "4.3", "fgMin": "1.01", "fgMax": "1.014", "abvMax": "5", "id": 97, "srmMin": "2", "name": "American-Style Premium Lager"}, "id": "ZmG9H7", "statusDisplay": "Verified", "updateDate": "2012-08-11 18:37:42", "abv": "5", "styleId": 97, "availableId": 1, "ibu": "23", "glasswareId": 5}, {"status": "verified", "isOrganic": "N", "statusDisplay": "Verified", "createDate": "2012-01-03 02:43:53", "breweries": [{"status": "verified", "isOrganic": "N", "statusDisplay": "Verified", "createDate": "2012-01-03 02:42:08", "locations": [{"inPlanning": "N", "countryIsoCode": "DE", "name": "Main Brewery", "locality": "Bad Schussenried", "openToPublic": "Y", "locationType": "micro", "region": "Baden-Wrttemberg", "longitude": 9.65836, "isClosed": "N", "phone": "49-(0)7583-/-404-11", "streetAddress": "Wilhelm-Schussen-Strae 12", "createDate": "2012-01-03 02:42:08", "status": "verified", "updateDate": "2014-07-23 19:11:34", "country": {"displayName": "Germany", "name": "GERMANY", "isoThree": "DEU", "createDate": "2012-01-03 02:41:33", "numberCode": 276, "isoCode": "DE"}, "latitude": 48.00397, "isPrimary": "Y", "id": "rxBexh", "locationTypeDisplay": "Micro Brewery", "statusDisplay": "Verified"}], "updateDate": "2012-03-21 19:06:08", "id": "CHRyRk", "name": "Schussenrieder Erlebnisbrauerei"}], "style": {"category": {"createDate": "2012-03-21 20:06:46", "id": 4, "name": "German Origin Ales"}, "description": "These beers are unfiltered German-style Altbier and K\u00f6lsch. They are packaged and/or served intentionally with low to moderate amounts of yeast. Products may be filtered and again dosed with yeast in the package, manifesting themselves as bottle conditioned beers or unfiltered beer with yeast present. They will most likely not be clear, and may appear slightly hazy to moderately cloudy. Yeast character, flavor and aroma are desirable, yet should be low to medium but not overpowering the balance and character of malt and hops. Low to moderately low levels of yeast-generated sulfur containing compounds should be apparent in aroma and flavor, and low levels of acetaldehyde or other volatiles normally removed during fermentation may or may not be apparent. The sulfur and acetaldehyde characters should contribute positively to the beer drinking experience. Head retention may not be optimal. The brewer must indicate the classic style on which the entry is based to allow for accurate judging. Beer entries not accompanied by this information will be at a disadvantage during evaluation.", "createDate": "2012-03-21 20:06:46", "categoryId": 4, "id": 56, "name": "Kellerbier (Cellar beer) or Zwickelbier - Ale"}, "updateDate": "2013-11-09 12:57:52", "styleId": 56, "id": "LHQ79n", "name": "Original No 1 Naturtr\u00fcb"}, {"status": "verified", "isOrganic": "N", "statusDisplay": "Verified", "createDate": "2012-08-12 12:15:21", "breweries": [{"status": "verified", "established": "2003", "isOrganic": "N", "statusDisplay": "Verified", "createDate": "2012-08-07 10:19:03", "locations": [{"inPlanning": "N", "countryIsoCode": "DE", "name": "Main Brewery", "locality": "Oettingen in Bayern", "openToPublic": "Y", "locationType": "micro", "region": "Nordrhein-Westfalen", "longitude": 10.57963, "isClosed": "N", "latitude": 48.951056, "streetAddress": "Brauhausstra\u00dfe 8", "createDate": "2012-08-12 14:47:46", "status": "verified", "updateDate": "2014-07-23 19:11:34", "country": {"displayName": "Germany", "name": "GERMANY", "isoThree": "DEU", "createDate": "2012-01-03 02:41:33", "numberCode": 276, "isoCode": "DE"}, "postalCode": "D-86732", "isPrimary": "N", "id": "atDMAs", "locationTypeDisplay": "Micro Brewery", "statusDisplay": "Verified"}], "updateDate": "2012-08-13 14:31:53", "id": "9ROe02", "name": "Oettinger Brauerei GmbH"}], "updateDate": "2012-08-17 18:07:23", "id": "mLMVTR", "name": "Original Oettinger Alkoholfrei"}, {"status": "verified", "isOrganic": "N", "statusDisplay": "Verified", "createDate": "2012-08-12 12:24:30", "breweries": [{"website": "http://oettinger-bier.de/", "status": "verified", "isOrganic": "N", "statusDisplay": "Verified", "createDate": "2012-08-07 10:20:37", "locations": [{"inPlanning": "N", "countryIsoCode": "DE", "name": "Main Brewery", "locality": "Braunschweig", "openToPublic": "Y", "locationType": "micro", "createDate": "2012-08-16 14:21:55", "longitude": 10.52736, "isClosed": "N", "latitude": 52.265435, "streetAddress": "Wolfenb\u00fctteler Stra\u00dfe 33", "status": "verified", "updateDate": "2014-07-23 19:11:34", "country": {"displayName": "Germany", "name": "GERMANY", "isoThree": "DEU", "createDate": "2012-01-03 02:41:33", "numberCode": 276, "isoCode": "DE"}, "postalCode": "38102", "isPrimary": "Y", "id": "mBpv9h", "locationTypeDisplay": "Micro Brewery", "statusDisplay": "Verified"}], "updateDate": "2012-08-16 14:21:39", "id": "zhO2k0", "name": "Oettinger Brauerei"}], "updateDate": "2012-08-17 18:37:11", "id": "urGxau", "name": "Original Oettinger Alkoholfrei"}, {"status": "verified", "isOrganic": "N", "statusDisplay": "Verified", "createDate": "2012-08-12 12:15:22", "breweries": [{"status": "verified", "established": "2003", "isOrganic": "N", "statusDisplay": "Verified", "createDate": "2012-08-07 10:19:03", "locations": [{"inPlanning": "N", "countryIsoCode": "DE", "name": "Main Brewery", "locality": "Oettingen in Bayern", "openToPublic": "Y", "locationType": "micro", "region": "Nordrhein-Westfalen", "longitude": 10.57963, "isClosed": "N", "latitude": 48.951056, "streetAddress": "Brauhausstra\u00dfe 8", "createDate": "2012-08-12 14:47:46", "status": "verified", "updateDate": "2014-07-23 19:11:34", "country": {"displayName": "Germany", "name": "GERMANY", "isoThree": "DEU", "createDate": "2012-01-03 02:41:33", "numberCode": 276, "isoCode": "DE"}, "postalCode": "D-86732", "isPrimary": "N", "id": "atDMAs", "locationTypeDisplay": "Micro Brewery", "statusDisplay": "Verified"}], "updateDate": "2012-08-13 14:31:53", "id": "9ROe02", "name": "Oettinger Brauerei GmbH"}], "updateDate": "2012-08-17 18:07:24", "id": "Of5Jcs", "name": "Original Oettinger Alt"}, {"status": "verified", "isOrganic": "N", "statusDisplay": "Verified", "createDate": "2012-08-12 12:24:30", "breweries": [{"website": "http://oettinger-bier.de/", "status": "verified", "isOrganic": "N", "statusDisplay": "Verified", "createDate": "2012-08-07 10:20:37", "locations": [{"inPlanning": "N", "countryIsoCode": "DE", "name": "Main Brewery", "locality": "Braunschweig", "openToPublic": "Y", "locationType": "micro", "createDate": "2012-08-16 14:21:55", "longitude": 10.52736, "isClosed": "N", "latitude": 52.265435, "streetAddress": "Wolfenb\u00fctteler Stra\u00dfe 33", "status": "verified", "updateDate": "2014-07-23 19:11:34", "country": {"displayName": "Germany", "name": "GERMANY", "isoThree": "DEU", "createDate": "2012-01-03 02:41:33", "numberCode": 276, "isoCode": "DE"}, "postalCode": "38102", "isPrimary": "Y", "id": "mBpv9h", "locationTypeDisplay": "Micro Brewery", "statusDisplay": "Verified"}], "updateDate": "2012-08-16 14:21:39", "id": "zhO2k0", "name": "Oettinger Brauerei"}], "updateDate": "2012-08-17 18:37:12", "id": "XAzlkL", "name": "Original Oettinger Alt"}, {"status": "verified", "isOrganic": "N", "statusDisplay": "Verified", "createDate": "2012-08-12 12:15:24", "breweries": [{"status": "verified", "established": "2003", "isOrganic": "N", "statusDisplay": "Verified", "createDate": "2012-08-07 10:19:03", "locations": [{"inPlanning": "N", "countryIsoCode": "DE", "name": "Main Brewery", "locality": "Oettingen in Bayern", "openToPublic": "Y", "locationType": "micro", "region": "Nordrhein-Westfalen", "longitude": 10.57963, "isClosed": "N", "latitude": 48.951056, "streetAddress": "Brauhausstra\u00dfe 8", "createDate": "2012-08-12 14:47:46", "status": "verified", "updateDate": "2014-07-23 19:11:34", "country": {"displayName": "Germany", "name": "GERMANY", "isoThree": "DEU", "createDate": "2012-01-03 02:41:33", "numberCode": 276, "isoCode": "DE"}, "postalCode": "D-86732", "isPrimary": "N", "id": "atDMAs", "locationTypeDisplay": "Micro Brewery", "statusDisplay": "Verified"}], "updateDate": "2012-08-13 14:31:53", "id": "9ROe02", "name": "Oettinger Brauerei GmbH"}], "updateDate": "2012-08-17 18:07:31", "id": "rvyYEc", "name": "Original Oettinger Bock"}, {"status": "verified", "isOrganic": "N", "statusDisplay": "Verified", "createDate": "2012-08-12 12:15:23", "breweries": [{"status": "verified", "established": "2003", "isOrganic": "N", "statusDisplay": "Verified", "createDate": "2012-08-07 10:19:03", "locations": [{"inPlanning": "N", "countryIsoCode": "DE", "name": "Main Brewery", "locality": "Oettingen in Bayern", "openToPublic": "Y", "locationType": "micro", "region": "Nordrhein-Westfalen", "longitude": 10.57963, "isClosed": "N", "latitude": 48.951056, "streetAddress": "Brauhausstra\u00dfe 8", "createDate": "2012-08-12 14:47:46", "status": "verified", "updateDate": "2014-07-23 19:11:34", "country": {"displayName": "Germany", "name": "GERMANY", "isoThree": "DEU", "createDate": "2012-01-03 02:41:33", "numberCode": 276, "isoCode": "DE"}, "postalCode": "D-86732", "isPrimary": "N", "id": "atDMAs", "locationTypeDisplay": "Micro Brewery", "statusDisplay": "Verified"}], "updateDate": "2012-08-13 14:31:53", "id": "9ROe02", "name": "Oettinger Brauerei GmbH"}], "updateDate": "2012-08-17 18:07:29", "id": "FcFk5B", "name": "Original Oettinger Cola Mixed"}, {"status": "verified", "isOrganic": "N", "statusDisplay": "Verified", "createDate": "2012-08-12 12:15:18", "breweries": [{"status": "verified", "established": "2003", "isOrganic": "N", "statusDisplay": "Verified", "createDate": "2012-08-07 10:19:03", "locations": [{"inPlanning": "N", "countryIsoCode": "DE", "name": "Main Brewery", "locality": "Oettingen in Bayern", "openToPublic": "Y", "locationType": "micro", "region": "Nordrhein-Westfalen", "longitude": 10.57963, "isClosed": "N", "latitude": 48.951056, "streetAddress": "Brauhausstra\u00dfe 8", "createDate": "2012-08-12 14:47:46", "status": "verified", "updateDate": "2014-07-23 19:11:34", "country": {"displayName": "Germany", "name": "GERMANY", "isoThree": "DEU", "createDate": "2012-01-03 02:41:33", "numberCode": 276, "isoCode": "DE"}, "postalCode": "D-86732", "isPrimary": "N", "id": "atDMAs", "locationTypeDisplay": "Micro Brewery", "statusDisplay": "Verified"}], "updateDate": "2012-08-13 14:31:53", "id": "9ROe02", "name": "Oettinger Brauerei GmbH"}], "updateDate": "2012-08-17 18:07:15", "id": "gkkSiG", "name": "Original Oettinger Dunkles Hefewei\u00dfbier"}, {"status": "verified", "isOrganic": "N", "statusDisplay": "Verified", "createDate": "2012-08-12 12:24:27", "breweries": [{"website": "http://oettinger-bier.de/", "status": "verified", "isOrganic": "N", "statusDisplay": "Verified", "createDate": "2012-08-07 10:20:37", "locations": [{"inPlanning": "N", "countryIsoCode": "DE", "name": "Main Brewery", "locality": "Braunschweig", "openToPublic": "Y", "locationType": "micro", "createDate": "2012-08-16 14:21:55", "longitude": 10.52736, "isClosed": "N", "latitude": 52.265435, "streetAddress": "Wolfenb\u00fctteler Stra\u00dfe 33", "status": "verified", "updateDate": "2014-07-23 19:11:34", "country": {"displayName": "Germany", "name": "GERMANY", "isoThree": "DEU", "createDate": "2012-01-03 02:41:33", "numberCode": 276, "isoCode": "DE"}, "postalCode": "38102", "isPrimary": "Y", "id": "mBpv9h", "locationTypeDisplay": "Micro Brewery", "statusDisplay": "Verified"}], "updateDate": "2012-08-16 14:21:39", "id": "zhO2k0", "name": "Oettinger Brauerei"}], "updateDate": "2012-08-17 18:37:03", "id": "pGeupj", "name": "Original Oettinger Dunkles Hefewei\u00dfbier"}, {"status": "verified", "isOrganic": "N", "statusDisplay": "Verified", "createDate": "2012-08-12 12:15:16", "breweries": [{"status": "verified", "established": "2003", "isOrganic": "N", "statusDisplay": "Verified", "createDate": "2012-08-07 10:19:03", "locations": [{"inPlanning": "N", "countryIsoCode": "DE", "name": "Main Brewery", "locality": "Oettingen in Bayern", "openToPublic": "Y", "locationType": "micro", "region": "Nordrhein-Westfalen", "longitude": 10.57963, "isClosed": "N", "latitude": 48.951056, "streetAddress": "Brauhausstra\u00dfe 8", "createDate": "2012-08-12 14:47:46", "status": "verified", "updateDate": "2014-07-23 19:11:34", "country": {"displayName": "Germany", "name": "GERMANY", "isoThree": "DEU", "createDate": "2012-01-03 02:41:33", "numberCode": 276, "isoCode": "DE"}, "postalCode": "D-86732", "isPrimary": "N", "id": "atDMAs", "locationTypeDisplay": "Micro Brewery", "statusDisplay": "Verified"}], "updateDate": "2012-08-13 14:31:53", "id": "9ROe02", "name": "Oettinger Brauerei GmbH"}], "updateDate": "2012-08-17 18:07:08", "id": "DTrE6W", "name": "Original Oettinger Export"}, {"status": "verified", "isOrganic": "N", "statusDisplay": "Verified", "createDate": "2012-08-12 12:24:25", "breweries": [{"website": "http://oettinger-bier.de/", "status": "verified", "isOrganic": "N", "statusDisplay": "Verified", "createDate": "2012-08-07 10:20:37", "locations": [{"inPlanning": "N", "countryIsoCode": "DE", "name": "Main Brewery", "locality": "Braunschweig", "openToPublic": "Y", "locationType": "micro", "createDate": "2012-08-16 14:21:55", "longitude": 10.52736, "isClosed": "N", "latitude": 52.265435, "streetAddress": "Wolfenb\u00fctteler Stra\u00dfe 33", "status": "verified", "updateDate": "2014-07-23 19:11:34", "country": {"displayName": "Germany", "name": "GERMANY", "isoThree": "DEU", "createDate": "2012-01-03 02:41:33", "numberCode": 276, "isoCode": "DE"}, "postalCode": "38102", "isPrimary": "Y", "id": "mBpv9h", "locationTypeDisplay": "Micro Brewery", "statusDisplay": "Verified"}], "updateDate": "2012-08-16 14:21:39", "id": "zhO2k0", "name": "Oettinger Brauerei"}], "updateDate": "2012-08-17 18:36:57", "id": "LzlgDz", "name": "Original Oettinger Export"}, {"status": "verified", "isOrganic": "N", "statusDisplay": "Verified", "createDate": "2012-08-12 12:15:18", "breweries": [{"status": "verified", "established": "2003", "isOrganic": "N", "statusDisplay": "Verified", "createDate": "2012-08-07 10:19:03", "locations": [{"inPlanning": "N", "countryIsoCode": "DE", "name": "Main Brewery", "locality": "Oettingen in Bayern", "openToPublic": "Y", "locationType": "micro", "region": "Nordrhein-Westfalen", "longitude": 10.57963, "isClosed": "N", "latitude": 48.951056, "streetAddress": "Brauhausstra\u00dfe 8", "createDate": "2012-08-12 14:47:46", "status": "verified", "updateDate": "2014-07-23 19:11:34", "country": {"displayName": "Germany", "name": "GERMANY", "isoThree": "DEU", "createDate": "2012-01-03 02:41:33", "numberCode": 276, "isoCode": "DE"}, "postalCode": "D-86732", "isPrimary": "N", "id": "atDMAs", "locationTypeDisplay": "Micro Brewery", "statusDisplay": "Verified"}], "updateDate": "2012-08-13 14:31:53", "id": "9ROe02", "name": "Oettinger Brauerei GmbH"}], "updateDate": "2012-08-17 18:07:14", "id": "4R1eYp", "name": "Original Oettinger Hefewei\u00dfbier"}, {"status": "verified", "isOrganic": "N", "statusDisplay": "Verified", "createDate": "2012-08-12 12:24:26", "breweries": [{"website": "http://oettinger-bier.de/", "status": "verified", "isOrganic": "N", "statusDisplay": "Verified", "createDate": "2012-08-07 10:20:37", "locations": [{"inPlanning": "N", "countryIsoCode": "DE", "name": "Main Brewery", "locality": "Braunschweig", "openToPublic": "Y", "locationType": "micro", "createDate": "2012-08-16 14:21:55", "longitude": 10.52736, "isClosed": "N", "latitude": 52.265435, "streetAddress": "Wolfenb\u00fctteler Stra\u00dfe 33", "status": "verified", "updateDate": "2014-07-23 19:11:34", "country": {"displayName": "Germany", "name": "GERMANY", "isoThree": "DEU", "createDate": "2012-01-03 02:41:33", "numberCode": 276, "isoCode": "DE"}, "postalCode": "38102", "isPrimary": "Y", "id": "mBpv9h", "locationTypeDisplay": "Micro Brewery", "statusDisplay": "Verified"}], "updateDate": "2012-08-16 14:21:39", "id": "zhO2k0", "name": "Oettinger Brauerei"}], "updateDate": "2012-08-17 18:37:01", "id": "Cww6gI", "name": "Original Oettinger Hefewei\u00dfbier"}, {"status": "verified", "isOrganic": "N", "statusDisplay": "Verified", "createDate": "2012-08-12 12:15:19", "breweries": [{"status": "verified", "established": "2003", "isOrganic": "N", "statusDisplay": "Verified", "createDate": "2012-08-07 10:19:03", "locations": [{"inPlanning": "N", "countryIsoCode": "DE", "name": "Main Brewery", "locality": "Oettingen in Bayern", "openToPublic": "Y", "locationType": "micro", "region": "Nordrhein-Westfalen", "longitude": 10.57963, "isClosed": "N", "latitude": 48.951056, "streetAddress": "Brauhausstra\u00dfe 8", "createDate": "2012-08-12 14:47:46", "status": "verified", "updateDate": "2014-07-23 19:11:34", "country": {"displayName": "Germany", "name": "GERMANY", "isoThree": "DEU", "createDate": "2012-01-03 02:41:33", "numberCode": 276, "isoCode": "DE"}, "postalCode": "D-86732", "isPrimary": "N", "id": "atDMAs", "locationTypeDisplay": "Micro Brewery", "statusDisplay": "Verified"}], "updateDate": "2012-08-13 14:31:53", "id": "9ROe02", "name": "Oettinger Brauerei GmbH"}], "updateDate": "2012-08-17 18:07:16", "id": "J4TGrh", "name": "Original Oettinger Kristall-Weizen"}, {"status": "verified", "isOrganic": "N", "statusDisplay": "Verified", "createDate": "2012-08-12 12:24:27", "breweries": [{"website": "http://oettinger-bier.de/", "status": "verified", "isOrganic": "N", "statusDisplay": "Verified", "createDate": "2012-08-07 10:20:37", "locations": [{"inPlanning": "N", "countryIsoCode": "DE", "name": "Main Brewery", "locality": "Braunschweig", "openToPublic": "Y", "locationType": "micro", "createDate": "2012-08-16 14:21:55", "longitude": 10.52736, "isClosed": "N", "latitude": 52.265435, "streetAddress": "Wolfenb\u00fctteler Stra\u00dfe 33", "status": "verified", "updateDate": "2014-07-23 19:11:34", "country": {"displayName": "Germany", "name": "GERMANY", "isoThree": "DEU", "createDate": "2012-01-03 02:41:33", "numberCode": 276, "isoCode": "DE"}, "postalCode": "38102", "isPrimary": "Y", "id": "mBpv9h", "locationTypeDisplay": "Micro Brewery", "statusDisplay": "Verified"}], "updateDate": "2012-08-16 14:21:39", "id": "zhO2k0", "name": "Oettinger Brauerei"}], "updateDate": "2012-08-17 18:37:05", "id": "RaNizA", "name": "Original Oettinger Kristall-Weizen"}, {"status": "verified", "isOrganic": "N", "statusDisplay": "Verified", "createDate": "2012-08-12 12:15:21", "breweries": [{"status": "verified", "established": "2003", "isOrganic": "N", "statusDisplay": "Verified", "createDate": "2012-08-07 10:19:03", "locations": [{"inPlanning": "N", "countryIsoCode": "DE", "name": "Main Brewery", "locality": "Oettingen in Bayern", "openToPublic": "Y", "locationType": "micro", "region": "Nordrhein-Westfalen", "longitude": 10.57963, "isClosed": "N", "latitude": 48.951056, "streetAddress": "Brauhausstra\u00dfe 8", "createDate": "2012-08-12 14:47:46", "status": "verified", "updateDate": "2014-07-23 19:11:34", "country": {"displayName": "Germany", "name": "GERMANY", "isoThree": "DEU", "createDate": "2012-01-03 02:41:33", "numberCode": 276, "isoCode": "DE"}, "postalCode": "D-86732", "isPrimary": "N", "id": "atDMAs", "locationTypeDisplay": "Micro Brewery", "statusDisplay": "Verified"}], "updateDate": "2012-08-13 14:31:53", "id": "9ROe02", "name": "Oettinger Brauerei GmbH"}], "updateDate": "2012-08-17 18:07:21", "id": "A1dhK0", "name": "Original Oettinger Leicht"}, {"status": "verified", "isOrganic": "N", "statusDisplay": "Verified", "createDate": "2012-08-12 12:24:29", "breweries": [{"website": "http://oettinger-bier.de/", "status": "verified", "isOrganic": "N", "statusDisplay": "Verified", "createDate": "2012-08-07 10:20:37", "locations": [{"inPlanning": "N", "countryIsoCode": "DE", "name": "Main Brewery", "locality": "Braunschweig", "openToPublic": "Y", "locationType": "micro", "createDate": "2012-08-16 14:21:55", "longitude": 10.52736, "isClosed": "N", "latitude": 52.265435, "streetAddress": "Wolfenb\u00fctteler Stra\u00dfe 33", "status": "verified", "updateDate": "2014-07-23 19:11:34", "country": {"displayName": "Germany", "name": "GERMANY", "isoThree": "DEU", "createDate": "2012-01-03 02:41:33", "numberCode": 276, "isoCode": "DE"}, "postalCode": "38102", "isPrimary": "Y", "id": "mBpv9h", "locationTypeDisplay": "Micro Brewery", "statusDisplay": "Verified"}], "updateDate": "2012-08-16 14:21:39", "id": "zhO2k0", "name": "Oettinger Brauerei"}], "updateDate": "2012-08-17 18:37:09", "id": "IXY9RT", "name": "Original Oettinger Leicht"}, {"status": "verified", "isOrganic": "N", "statusDisplay": "Verified", "createDate": "2012-08-12 12:15:20", "breweries": [{"status": "verified", "established": "2003", "isOrganic": "N", "statusDisplay": "Verified", "createDate": "2012-08-07 10:19:03", "locations": [{"inPlanning": "N", "countryIsoCode": "DE", "name": "Main Brewery", "locality": "Oettingen in Bayern", "openToPublic": "Y", "locationType": "micro", "region": "Nordrhein-Westfalen", "longitude": 10.57963, "isClosed": "N", "latitude": 48.951056, "streetAddress": "Brauhausstra\u00dfe 8", "createDate": "2012-08-12 14:47:46", "status": "verified", "updateDate": "2014-07-23 19:11:34", "country": {"displayName": "Germany", "name": "GERMANY", "isoThree": "DEU", "createDate": "2012-01-03 02:41:33", "numberCode": 276, "isoCode": "DE"}, "postalCode": "D-86732", "isPrimary": "N", "id": "atDMAs", "locationTypeDisplay": "Micro Brewery", "statusDisplay": "Verified"}], "updateDate": "2012-08-13 14:31:53", "id": "9ROe02", "name": "Oettinger Brauerei GmbH"}], "updateDate": "2012-08-17 18:07:18", "id": "vOC518", "name": "Original Oettinger Leichte Wei\u00dfe"}, {"status": "verified", "isOrganic": "N", "statusDisplay": "Verified", "createDate": "2012-08-12 12:24:28", "breweries": [{"website": "http://oettinger-bier.de/", "status": "verified", "isOrganic": "N", "statusDisplay": "Verified", "createDate": "2012-08-07 10:20:37", "locations": [{"inPlanning": "N", "countryIsoCode": "DE", "name": "Main Brewery", "locality": "Braunschweig", "openToPublic": "Y", "locationType": "micro", "createDate": "2012-08-16 14:21:55", "longitude": 10.52736, "isClosed": "N", "latitude": 52.265435, "streetAddress": "Wolfenb\u00fctteler Stra\u00dfe 33", "status": "verified", "updateDate": "2014-07-23 19:11:34", "country": {"displayName": "Germany", "name": "GERMANY", "isoThree": "DEU", "createDate": "2012-01-03 02:41:33", "numberCode": 276, "isoCode": "DE"}, "postalCode": "38102", "isPrimary": "Y", "id": "mBpv9h", "locationTypeDisplay": "Micro Brewery", "statusDisplay": "Verified"}], "updateDate": "2012-08-16 14:21:39", "id": "zhO2k0", "name": "Oettinger Brauerei"}], "updateDate": "2012-08-17 18:37:06", "id": "3u6X8b", "name": "Original Oettinger Leichte Wei\u00dfe"}, {"status": "verified", "isOrganic": "N", "statusDisplay": "Verified", "createDate": "2012-08-12 12:24:31", "breweries": [{"website": "http://oettinger-bier.de/", "status": "verified", "isOrganic": "N", "statusDisplay": "Verified", "createDate": "2012-08-07 10:20:37", "locations": [{"inPlanning": "N", "countryIsoCode": "DE", "name": "Main Brewery", "locality": "Braunschweig", "openToPublic": "Y", "locationType": "micro", "createDate": "2012-08-16 14:21:55", "longitude": 10.52736, "isClosed": "N", "latitude": 52.265435, "streetAddress": "Wolfenb\u00fctteler Stra\u00dfe 33", "status": "verified", "updateDate": "2014-07-23 19:11:34", "country": {"displayName": "Germany", "name": "GERMANY", "isoThree": "DEU", "createDate": "2012-01-03 02:41:33", "numberCode": 276, "isoCode": "DE"}, "postalCode": "38102", "isPrimary": "Y", "id": "mBpv9h", "locationTypeDisplay": "Micro Brewery", "statusDisplay": "Verified"}], "updateDate": "2012-08-16 14:21:39", "id": "zhO2k0", "name": "Oettinger Brauerei"}], "updateDate": "2012-08-17 18:37:17", "id": "loRO3D", "name": "Original Oettinger Malz"}, {"status": "verified", "isOrganic": "N", "statusDisplay": "Verified", "createDate": "2012-08-12 12:24:32", "breweries": [{"website": "http://oettinger-bier.de/", "status": "verified", "isOrganic": "N", "statusDisplay": "Verified", "createDate": "2012-08-07 10:20:37", "locations": [{"inPlanning": "N", "countryIsoCode": "DE", "name": "Main Brewery", "locality": "Braunschweig", "openToPublic": "Y", "locationType": "micro", "createDate": "2012-08-16 14:21:55", "longitude": 10.52736, "isClosed": "N", "latitude": 52.265435, "streetAddress": "Wolfenb\u00fctteler Stra\u00dfe 33", "status": "verified", "updateDate": "2014-07-23 19:11:34", "country": {"displayName": "Germany", "name": "GERMANY", "isoThree": "DEU", "createDate": "2012-01-03 02:41:33", "numberCode": 276, "isoCode": "DE"}, "postalCode": "38102", "isPrimary": "Y", "id": "mBpv9h", "locationTypeDisplay": "Micro Brewery", "statusDisplay": "Verified"}], "updateDate": "2012-08-16 14:21:39", "id": "zhO2k0", "name": "Oettinger Brauerei"}], "updateDate": "2012-08-17 18:37:19", "id": "0Rt0M5", "name": "Original Oettinger Mixed"}, {"status": "verified", "isOrganic": "N", "statusDisplay": "Verified", "createDate": "2012-08-12 12:15:16", "breweries": [{"status": "verified", "established": "2003", "isOrganic": "N", "statusDisplay": "Verified", "createDate": "2012-08-07 10:19:03", "locations": [{"inPlanning": "N", "countryIsoCode": "DE", "name": "Main Brewery", "locality": "Oettingen in Bayern", "openToPublic": "Y", "locationType": "micro", "region": "Nordrhein-Westfalen", "longitude": 10.57963, "isClosed": "N", "latitude": 48.951056, "streetAddress": "Brauhausstra\u00dfe 8", "createDate": "2012-08-12 14:47:46", "status": "verified", "updateDate": "2014-07-23 19:11:34", "country": {"displayName": "Germany", "name": "GERMANY", "isoThree": "DEU", "createDate": "2012-01-03 02:41:33", "numberCode": 276, "isoCode": "DE"}, "postalCode": "D-86732", "isPrimary": "N", "id": "atDMAs", "locationTypeDisplay": "Micro Brewery", "statusDisplay": "Verified"}], "updateDate": "2012-08-13 14:31:53", "id": "9ROe02", "name": "Oettinger Brauerei GmbH"}], "updateDate": "2012-08-17 18:07:07", "id": "bA8Px5", "name": "Original Oettinger Pils"}, {"status": "verified", "available": {"description": "Available year round as a staple beer.", "id": 1, "name": "Year Round"}, "isOrganic": "N", "name": "Original Oettinger Pils", "statusDisplay": "Verified", "createDate": "2012-08-12 12:24:24", "breweries": [{"website": "http://oettinger-bier.de/", "status": "verified", "isOrganic": "N", "statusDisplay": "Verified", "createDate": "2012-08-07 10:20:37", "locations": [{"inPlanning": "N", "countryIsoCode": "DE", "name": "Main Brewery", "locality": "Braunschweig", "openToPublic": "Y", "locationType": "micro", "createDate": "2012-08-16 14:21:55", "longitude": 10.52736, "isClosed": "N", "latitude": 52.265435, "streetAddress": "Wolfenb\u00fctteler Stra\u00dfe 33", "status": "verified", "updateDate": "2014-07-23 19:11:34", "country": {"displayName": "Germany", "name": "GERMANY", "isoThree": "DEU", "createDate": "2012-01-03 02:41:33", "numberCode": 276, "isoCode": "DE"}, "postalCode": "38102", "isPrimary": "Y", "id": "mBpv9h", "locationTypeDisplay": "Micro Brewery", "statusDisplay": "Verified"}], "updateDate": "2012-08-16 14:21:39", "id": "zhO2k0", "name": "Oettinger Brauerei"}], "style": {"category": {"createDate": "2012-03-21 20:06:46", "id": 7, "name": "European-germanic Lager"}, "ogMin": "1.044", "description": "A classic German Pilsener is very light straw or golden in color and well hopped. Perception of hop bitterness is medium to high. Noble-type hop aroma and flavor are moderate and quite obvious. It is a well-attenuated, medium-light bodied beer, but a malty residual sweetness can be perceived in aroma and flavor. Very low levels of sweet corn-like dimethylsulfide (DMS) character are below most beer drinkers' taste thresholds and are usually not detectable except to the trained or sensitive palate. Other fermentation or hop related sulfur compounds, when perceived at low levels, may be characteristic of this style. Fruity esters and diacetyl should not be perceived. There should be no chill haze. Its head should be dense and rich.", "createDate": "2012-03-21 20:06:46", "ibuMin": "25", "categoryId": 7, "srmMax": "4", "ibuMax": "40", "abvMin": "4", "fgMin": "1.006", "fgMax": "1.012", "abvMax": "5", "id": 75, "srmMin": "3", "name": "German-Style Pilsener"}, "glass": {"createDate": "2012-01-03 02:41:33", "id": 4, "name": "Pilsner"}, "updateDate": "2014-09-07 15:17:34", "abv": "4.7", "styleId": 75, "availableId": 1, "id": "jg2s4Y", "glasswareId": 4}, {"status": "verified", "isOrganic": "N", "statusDisplay": "Verified", "createDate": "2012-08-12 12:15:20", "breweries": [{"status": "verified", "established": "2003", "isOrganic": "N", "statusDisplay": "Verified", "createDate": "2012-08-07 10:19:03", "locations": [{"inPlanning": "N", "countryIsoCode": "DE", "name": "Main Brewery", "locality": "Oettingen in Bayern", "openToPublic": "Y", "locationType": "micro", "region": "Nordrhein-Westfalen", "longitude": 10.57963, "isClosed": "N", "latitude": 48.951056, "streetAddress": "Brauhausstra\u00dfe 8", "createDate": "2012-08-12 14:47:46", "status": "verified", "updateDate": "2014-07-23 19:11:34", "country": {"displayName": "Germany", "name": "GERMANY", "isoThree": "DEU", "createDate": "2012-01-03 02:41:33", "numberCode": 276, "isoCode": "DE"}, "postalCode": "D-86732", "isPrimary": "N", "id": "atDMAs", "locationTypeDisplay": "Micro Brewery", "statusDisplay": "Verified"}], "updateDate": "2012-08-13 14:31:53", "id": "9ROe02", "name": "Oettinger Brauerei GmbH"}], "updateDate": "2012-08-17 18:07:19", "id": "XhutAZ", "name": "Original Oettinger Radler"}, {"status": "verified", "isOrganic": "N", "statusDisplay": "Verified", "createDate": "2012-08-12 12:24:28", "breweries": [{"website": "http://oettinger-bier.de/", "status": "verified", "isOrganic": "N", "statusDisplay": "Verified", "createDate": "2012-08-07 10:20:37", "locations": [{"inPlanning": "N", "countryIsoCode": "DE", "name": "Main Brewery", "locality": "Braunschweig", "openToPublic": "Y", "locationType": "micro", "createDate": "2012-08-16 14:21:55", "longitude": 10.52736, "isClosed": "N", "latitude": 52.265435, "streetAddress": "Wolfenb\u00fctteler Stra\u00dfe 33", "status": "verified", "updateDate": "2014-07-23 19:11:34", "country": {"displayName": "Germany", "name": "GERMANY", "isoThree": "DEU", "createDate": "2012-01-03 02:41:33", "numberCode": 276, "isoCode": "DE"}, "postalCode": "38102", "isPrimary": "Y", "id": "mBpv9h", "locationTypeDisplay": "Micro Brewery", "statusDisplay": "Verified"}], "updateDate": "2012-08-16 14:21:39", "id": "zhO2k0", "name": "Oettinger Brauerei"}], "updateDate": "2012-08-17 18:37:07", "id": "gDpLI2", "name": "Original Oettinger Radler"}, {"status": "verified", "isOrganic": "N", "statusDisplay": "Verified", "createDate": "2012-08-12 12:15:22", "breweries": [{"status": "verified", "established": "2003", "isOrganic": "N", "statusDisplay": "Verified", "createDate": "2012-08-07 10:19:03", "locations": [{"inPlanning": "N", "countryIsoCode": "DE", "name": "Main Brewery", "locality": "Oettingen in Bayern", "openToPublic": "Y", "locationType": "micro", "region": "Nordrhein-Westfalen", "longitude": 10.57963, "isClosed": "N", "latitude": 48.951056, "streetAddress": "Brauhausstra\u00dfe 8", "createDate": "2012-08-12 14:47:46", "status": "verified", "updateDate": "2014-07-23 19:11:34", "country": {"displayName": "Germany", "name": "GERMANY", "isoThree": "DEU", "createDate": "2012-01-03 02:41:33", "numberCode": 276, "isoCode": "DE"}, "postalCode": "D-86732", "isPrimary": "N", "id": "atDMAs", "locationTypeDisplay": "Micro Brewery", "statusDisplay": "Verified"}], "updateDate": "2012-08-13 14:31:53", "id": "9ROe02", "name": "Oettinger Brauerei GmbH"}], "updateDate": "2012-08-17 18:07:26", "id": "0yo7mJ", "name": "Original Oettinger Schwarzbier"}, {"status": "verified", "isOrganic": "N", "statusDisplay": "Verified", "createDate": "2012-08-12 12:24:31", "breweries": [{"website": "http://oettinger-bier.de/", "status": "verified", "isOrganic": "N", "statusDisplay": "Verified", "createDate": "2012-08-07 10:20:37", "locations": [{"inPlanning": "N", "countryIsoCode": "DE", "name": "Main Brewery", "locality": "Braunschweig", "openToPublic": "Y", "locationType": "micro", "createDate": "2012-08-16 14:21:55", "longitude": 10.52736, "isClosed": "N", "latitude": 52.265435, "streetAddress": "Wolfenb\u00fctteler Stra\u00dfe 33", "status": "verified", "updateDate": "2014-07-23 19:11:34", "country": {"displayName": "Germany", "name": "GERMANY", "isoThree": "DEU", "createDate": "2012-01-03 02:41:33", "numberCode": 276, "isoCode": "DE"}, "postalCode": "38102", "isPrimary": "Y", "id": "mBpv9h", "locationTypeDisplay": "Micro Brewery", "statusDisplay": "Verified"}], "updateDate": "2012-08-16 14:21:39", "id": "zhO2k0", "name": "Oettinger Brauerei"}], "updateDate": "2012-08-17 18:37:16", "id": "9UiZtm", "name": "Original Oettinger Schwarzbier"}, {"status": "verified", "isOrganic": "N", "statusDisplay": "Verified", "createDate": "2012-08-12 12:15:17", "breweries": [{"status": "verified", "established": "2003", "isOrganic": "N", "statusDisplay": "Verified", "createDate": "2012-08-07 10:19:03", "locations": [{"inPlanning": "N", "countryIsoCode": "DE", "name": "Main Brewery", "locality": "Oettingen in Bayern", "openToPublic": "Y", "locationType": "micro", "region": "Nordrhein-Westfalen", "longitude": 10.57963, "isClosed": "N", "latitude": 48.951056, "streetAddress": "Brauhausstra\u00dfe 8", "createDate": "2012-08-12 14:47:46", "status": "verified", "updateDate": "2014-07-23 19:11:34", "country": {"displayName": "Germany", "name": "GERMANY", "isoThree": "DEU", "createDate": "2012-01-03 02:41:33", "numberCode": 276, "isoCode": "DE"}, "postalCode": "D-86732", "isPrimary": "N", "id": "atDMAs", "locationTypeDisplay": "Micro Brewery", "statusDisplay": "Verified"}], "updateDate": "2012-08-13 14:31:53", "id": "9ROe02", "name": "Oettinger Brauerei GmbH"}], "updateDate": "2012-08-17 18:07:12", "id": "S7IqPO", "name": "Original Oettinger Urtyp"}, {"status": "verified", "isOrganic": "N", "statusDisplay": "Verified", "createDate": "2012-08-12 12:24:26", "breweries": [{"website": "http://oettinger-bier.de/", "status": "verified", "isOrganic": "N", "statusDisplay": "Verified", "createDate": "2012-08-07 10:20:37", "locations": [{"inPlanning": "N", "countryIsoCode": "DE", "name": "Main Brewery", "locality": "Braunschweig", "openToPublic": "Y", "locationType": "micro", "createDate": "2012-08-16 14:21:55", "longitude": 10.52736, "isClosed": "N", "latitude": 52.265435, "streetAddress": "Wolfenb\u00fctteler Stra\u00dfe 33", "status": "verified", "updateDate": "2014-07-23 19:11:34", "country": {"displayName": "Germany", "name": "GERMANY", "isoThree": "DEU", "createDate": "2012-01-03 02:41:33", "numberCode": 276, "isoCode": "DE"}, "postalCode": "38102", "isPrimary": "Y", "id": "mBpv9h", "locationTypeDisplay": "Micro Brewery", "statusDisplay": "Verified"}], "updateDate": "2012-08-16 14:21:39", "id": "zhO2k0", "name": "Oettinger Brauerei"}], "updateDate": "2012-08-17 18:37:00", "id": "adDIWr", "name": "Original Oettinger Urtyp"}, {"status": "verified", "isOrganic": "N", "statusDisplay": "Verified", "createDate": "2012-08-12 12:15:17", "breweries": [{"status": "verified", "established": "2003", "isOrganic": "N", "statusDisplay": "Verified", "createDate": "2012-08-07 10:19:03", "locations": [{"inPlanning": "N", "countryIsoCode": "DE", "name": "Main Brewery", "locality": "Oettingen in Bayern", "openToPublic": "Y", "locationType": "micro", "region": "Nordrhein-Westfalen", "longitude": 10.57963, "isClosed": "N", "latitude": 48.951056, "streetAddress": "Brauhausstra\u00dfe 8", "createDate": "2012-08-12 14:47:46", "status": "verified", "updateDate": "2014-07-23 19:11:34", "country": {"displayName": "Germany", "name": "GERMANY", "isoThree": "DEU", "createDate": "2012-01-03 02:41:33", "numberCode": 276, "isoCode": "DE"}, "postalCode": "D-86732", "isPrimary": "N", "id": "atDMAs", "locationTypeDisplay": "Micro Brewery", "statusDisplay": "Verified"}], "updateDate": "2012-08-13 14:31:53", "id": "9ROe02", "name": "Oettinger Brauerei GmbH"}], "updateDate": "2012-08-17 18:07:11", "id": "pna2Fx", "name": "Original Oettinger Vollbier Hell"}, {"status": "verified", "isOrganic": "N", "statusDisplay": "Verified", "createDate": "2012-08-12 12:24:25", "breweries": [{"website": "http://oettinger-bier.de/", "status": "verified", "isOrganic": "N", "statusDisplay": "Verified", "createDate": "2012-08-07 10:20:37", "locations": [{"inPlanning": "N", "countryIsoCode": "DE", "name": "Main Brewery", "locality": "Braunschweig", "openToPublic": "Y", "locationType": "micro", "createDate": "2012-08-16 14:21:55", "longitude": 10.52736, "isClosed": "N", "latitude": 52.265435, "streetAddress": "Wolfenb\u00fctteler Stra\u00dfe 33", "status": "verified", "updateDate": "2014-07-23 19:11:34", "country": {"displayName": "Germany", "name": "GERMANY", "isoThree": "DEU", "createDate": "2012-01-03 02:41:33", "numberCode": 276, "isoCode": "DE"}, "postalCode": "38102", "isPrimary": "Y", "id": "mBpv9h", "locationTypeDisplay": "Micro Brewery", "statusDisplay": "Verified"}], "updateDate": "2012-08-16 14:21:39", "id": "zhO2k0", "name": "Oettinger Brauerei"}], "updateDate": "2012-08-17 18:36:58", "id": "yJUUNQ", "name": "Original Oettinger Vollbier Hell"}, {"status": "verified", "isOrganic": "N", "statusDisplay": "Verified", "createDate": "2012-08-12 12:15:23", "breweries": [{"status": "verified", "established": "2003", "isOrganic": "N", "statusDisplay": "Verified", "createDate": "2012-08-07 10:19:03", "locations": [{"inPlanning": "N", "countryIsoCode": "DE", "name": "Main Brewery", "locality": "Oettingen in Bayern", "openToPublic": "Y", "locationType": "micro", "region": "Nordrhein-Westfalen", "longitude": 10.57963, "isClosed": "N", "latitude": 48.951056, "streetAddress": "Brauhausstra\u00dfe 8", "createDate": "2012-08-12 14:47:46", "status": "verified", "updateDate": "2014-07-23 19:11:34", "country": {"displayName": "Germany", "name": "GERMANY", "isoThree": "DEU", "createDate": "2012-01-03 02:41:33", "numberCode": 276, "isoCode": "DE"}, "postalCode": "D-86732", "isPrimary": "N", "id": "atDMAs", "locationTypeDisplay": "Micro Brewery", "statusDisplay": "Verified"}], "updateDate": "2012-08-13 14:31:53", "id": "9ROe02", "name": "Oettinger Brauerei GmbH"}], "updateDate": "2012-08-17 18:07:28", "id": "dIWvvk", "name": "Original Oettinger Winterbier"}, {"status": "verified", "isOrganic": "N", "statusDisplay": "Verified", "createDate": "2012-08-12 12:24:32", "breweries": [{"website": "http://oettinger-bier.de/", "status": "verified", "isOrganic": "N", "statusDisplay": "Verified", "createDate": "2012-08-07 10:20:37", "locations": [{"inPlanning": "N", "countryIsoCode": "DE", "name": "Main Brewery", "locality": "Braunschweig", "openToPublic": "Y", "locationType": "micro", "createDate": "2012-08-16 14:21:55", "longitude": 10.52736, "isClosed": "N", "latitude": 52.265435, "streetAddress": "Wolfenb\u00fctteler Stra\u00dfe 33", "status": "verified", "updateDate": "2014-07-23 19:11:34", "country": {"displayName": "Germany", "name": "GERMANY", "isoThree": "DEU", "createDate": "2012-01-03 02:41:33", "numberCode": 276, "isoCode": "DE"}, "postalCode": "38102", "isPrimary": "Y", "id": "mBpv9h", "locationTypeDisplay": "Micro Brewery", "statusDisplay": "Verified"}], "updateDate": "2012-08-16 14:21:39", "id": "zhO2k0", "name": "Oettinger Brauerei"}], "updateDate": "2012-08-17 18:37:18", "id": "O8ACCe", "name": "Original Oettinger Winterbier"}, {"status": "verified", "isOrganic": "N", "breweries": [{"status": "verified", "isOrganic": "N", "statusDisplay": "Verified", "createDate": "2012-01-03 02:41:56", "locations": [{"inPlanning": "N", "countryIsoCode": "DE", "name": "Main Brewery", "locality": "Mnchen", "openToPublic": "Y", "locationType": "micro", "region": "Bayern", "longitude": 11.577531, "isClosed": "N", "createDate": "2012-01-03 02:41:56", "status": "verified", "updateDate": "2014-07-23 19:11:34", "country": {"displayName": "Germany", "name": "GERMANY", "isoThree": "DEU", "createDate": "2012-01-03 02:41:33", "numberCode": 276, "isoCode": "DE"}, "latitude": 48.136415, "isPrimary": "Y", "id": "rMDHfM", "locationTypeDisplay": "Micro Brewery", "statusDisplay": "Verified"}], "updateDate": "2012-03-21 19:06:06", "id": "nXoKVR", "name": "Hacker-Pschorr Bru"}], "description": "Original Oktoberfest Ingredients 100% natural. Brewed with pure spring water, Hacker-Pschorr's centuries-old, exclusive yeast strain, Hallertau hops and dark- and light-colored brewing malt from two-row Bavarian summer barley. \r\nAroma: A caramelized barley, sweet, malty nose. \r\nAppearance: A classic Bavarian M\u00e4rzen style, clear, with a rich amber color. Color: 10 EBC. Taste: Full-bodied, flavorful, with a rich, creamy head. Bitterness: 28 EBU.", "statusDisplay": "Verified", "createDate": "2012-01-03 02:43:53", "labels": {"large": "https://s3.amazonaws.com/brewerydbapi/beer/iWV3FQ/upload_5JTtRW-large.png", "medium": "https://s3.amazonaws.com/brewerydbapi/beer/iWV3FQ/upload_5JTtRW-medium.png", "icon": "https://s3.amazonaws.com/brewerydbapi/beer/iWV3FQ/upload_5JTtRW-icon.png"}, "style": {"category": {"createDate": "2012-03-21 20:06:46", "id": 7, "name": "European-germanic Lager"}, "ogMin": "1.05", "description": "M\u00e4rzens are characterized by a medium body and broad range of color. They can range from golden to reddish orange. Sweet maltiness should dominate slightly over a clean hop bitterness. Malt character should be light-toasted rather than strongly caramel (though a low level of light caramel character is acceptable). Bread or biscuit-like malt character is acceptable in aroma and flavor. Hop aroma and flavor should be low but notable. Ale-like fruity esters should not be perceived. Diacetyl and chill haze should not be perceived.", "createDate": "2012-03-21 20:06:46", "ibuMin": "18", "categoryId": 7, "srmMax": "15", "ibuMax": "25", "abvMin": "5.3", "fgMin": "1.012", "fgMax": "1.02", "abvMax": "5.9", "id": 81, "srmMin": "4", "name": "German-Style M\u00e4rzen"}, "id": "iWV3FQ", "updateDate": "2013-08-02 12:25:00", "abv": "5.8", "styleId": 81, "ibu": "28", "name": "Original Oktoberfest"}, {"status": "verified", "available": {"description": "Available year round as a staple beer.", "id": 1, "name": "Year Round"}, "isOrganic": "Y", "description": "Ontario\u2019s first certified organic lager was born in 2002 from a sense of purpose and a passion for craft beer. We adhere to rules that guarantee both the raw materials and brewing process are pesticide- and herbicide-free. Brewed with imported malt and hops, this 4.2% German Pilsner offers a light, crisp and refreshing flavour with a clean finish.", "statusDisplay": "Verified", "createDate": "2014-06-22 06:28:44", "breweries": [{"website": "http://www.millstreetbrewery.com/", "established": "2002", "isOrganic": "N", "description": "At Mill Street Brewery, we brew with the finest ingredients in small batches, yielding lagers and ales of exceptional quality and taste\u2026and that\u2019s no easy feat! Our dedication to our craft and passion for pushing the envelope has earned us some serious accolades since we officially opened in December 2002.", "statusDisplay": "Verified", "createDate": "2012-01-03 02:42:02", "locations": [{"status": "verified", "openToPublic": "Y", "isPrimary": "Y", "id": "35YJeP", "locationTypeDisplay": "Micro Brewery", "inPlanning": "N", "locality": "Toronto", "createDate": "2012-01-03 02:42:02", "streetAddress": "55 Mill Street", "postalCode": "M5A 3C4", "extendedAddress": "Building 63", "website": "http://www.millstreetbrewery.com/", "statusDisplay": "Verified", "yearOpened": "2002", "countryIsoCode": "CA", "phone": "416-759-6565", "isClosed": "N", "name": "Main Brewery", "latitude": 43.6507179, "locationType": "micro", "region": "Ontario", "longitude": -79.3580246, "updateDate": "2014-07-23 19:11:34", "country": {"displayName": "Canada", "name": "CANADA", "isoThree": "CAN", "createDate": "2012-01-03 02:41:33", "numberCode": 124, "isoCode": "CA"}}], "status": "verified", "updateDate": "2013-09-15 18:49:07", "images": {"large": "https://s3.amazonaws.com/brewerydbapi/brewery/KzHweV/upload_69FkIO-large.png", "medium": "https://s3.amazonaws.com/brewerydbapi/brewery/KzHweV/upload_69FkIO-medium.png", "icon": "https://s3.amazonaws.com/brewerydbapi/brewery/KzHweV/upload_69FkIO-icon.png"}, "id": "KzHweV", "name": "Mill Street Brewery"}], "style": {"category": {"createDate": "2012-03-21 20:06:46", "id": 8, "name": "North American Lager"}, "ogMin": "1.04", "description": "Light in body and very light to straw in color, American lagers are very clean and crisp and aggressively carbonated. Flavor components should b e subtle and complex, with no one ingredient dominating the others. Malt sweetness is light to mild. Corn, rice, or other grain or sugar adjuncts are often used. Hop bitterness, flavor and aroma are negligible to very light. Light fruity esters are acceptable. Chill haze and diacetyl should be absent.", "createDate": "2012-03-21 20:06:46", "ibuMin": "5", "categoryId": 8, "srmMax": "4", "ibuMax": "13", "abvMin": "3.8", "fgMin": "1.006", "fgMax": "1.01", "abvMax": "5", "id": 93, "srmMin": "2", "name": "American-Style Lager"}, "foodPairings": "Seafood, light pasta, cheese and fruit", "updateDate": "2014-10-15 13:00:28", "abv": "4.2", "styleId": 93, "availableId": 1, "id": "jA42T8", "name": "Original Organic"}, {"status": "verified", "isOrganic": "N", "description": "Not too hoppy, Pilsner base malt, California ale yeast, Northwest coast Willamette, Centennial and Cascade hops. Dry hopped with Cascade style hops grown at the brewery. A hoppier, lower alcohol version using English ale yeast is also available.\u200b", "statusDisplay": "Verified", "createDate": "2013-08-24 12:40:52", "breweries": [{"website": "http://www.thebeerdiviner.com/", "established": "2012", "isOrganic": "N", "description": "New York Farm Brewery Tap Room and Market\r\n\r\nI brew small, controlled batches using Brew Magic's advanced Recirculating Infusion Mash System (RIMS). The result is smooth, delicious pale, red, stout and medieval gruit ales - or any beer you care to custom order. Each bottle is filled by hand and conditioned at optimum temperatures. In 2012, I received my licenses for Bly Hollow Brewery, d.b.a.The Beer Diviner.", "statusDisplay": "Verified", "createDate": "2013-08-22 15:50:26", "locations": [{"status": "verified", "openToPublic": "Y", "isPrimary": "Y", "hoursOfOperation": "Friday 1pm - 8pm", "locationTypeDisplay": "Tasting Room", "inPlanning": "N", "locality": "Stephentown", "createDate": "2013-08-22 15:55:02", "id": "YLICES", "streetAddress": "15950 NY Route 22", "postalCode": "12168", "extendedAddress": "Corner of Rt 43 & 22", "website": "http://www.thebeerdiviner.com/", "statusDisplay": "Verified", "yearOpened": "2013", "countryIsoCode": "US", "phone": "(518) 658-0299", "isClosed": "N", "name": "The Beer Diviner Tap Room & Market", "latitude": 42.547768, "locationType": "tasting", "region": "New York", "longitude": -73.3687091, "updateDate": "2014-07-23 19:11:34", "country": {"displayName": "United States", "name": "UNITED STATES", "isoThree": "USA", "createDate": "2012-01-03 02:41:33", "numberCode": 840, "isoCode": "US"}}], "status": "verified", "updateDate": "2013-08-24 12:40:05", "images": {"large": "https://s3.amazonaws.com/brewerydbapi/brewery/5GKTi0/upload_j0HaDj-large.png", "medium": "https://s3.amazonaws.com/brewerydbapi/brewery/5GKTi0/upload_j0HaDj-medium.png", "icon": "https://s3.amazonaws.com/brewerydbapi/brewery/5GKTi0/upload_j0HaDj-icon.png"}, "id": "5GKTi0", "name": "The Beer Diviner"}], "style": {"category": {"createDate": "2012-03-21 20:06:45", "id": 3, "name": "North American Origin Ales"}, "ogMin": "1.044", "description": "American pale ales range from deep golden to copper in color. The style is characterized by fruity, floral and citrus-like American-variety hop character producing medium to medium-high hop bitterness, flavor, and aroma. Note that the \"traditional\" style of this beer has its origins with certain floral, fruity, citrus-like, piney, resinous, or sulfur-like American hop varietals. One or more of these hop characters is the perceived end, but the perceived hop characters may be a result of the skillful use of hops of other national origins. American pale ales have medium body and low to medium maltiness. Low caramel character is allowable. Fruity-ester flavor and aroma should be moderate to strong. Diacetyl should be absent or present at very low levels. Chill haze is allowable at cold temperatures.", "createDate": "2012-03-21 20:06:45", "ibuMin": "30", "categoryId": 3, "srmMax": "14", "ibuMax": "42", "abvMin": "4.5", "fgMin": "1.008", "fgMax": "1.014", "abvMax": "5.6", "id": 25, "srmMin": "6", "name": "American-Style Pale Ale"}, "id": "phbdN0", "updateDate": "2013-08-24 12:41:42", "abv": "7.7", "styleId": 25, "ibu": "33", "name": "Original Pale Ale"}, {"status": "verified", "available": {"description": "Available year round as a staple beer.", "id": 1, "name": "Year Round"}, "isOrganic": "N", "breweries": [{"website": "http://www.coopers.com.au/", "status": "verified", "isOrganic": "N", "description": "Coopers Brewery produce a range of Ales,Stouts and Lagers.   Our ale range is brewed by a method of top fermentation, originating in the Middle Ages.  Coopers uses only natural ingredients including malt, hops, sugar, water and a special yeast strain that's over 90 years old.  Coopers do not use preservatives or chemicals in their ale range.   Coopers also produce Stout and Lager beers.  The Lager beers are bottom fermented in cooler conditions, matured for a short period and pasteurised.", "statusDisplay": "Verified", "createDate": "2012-01-03 02:41:51", "locations": [{"website": "http://www.coopers.com.au/", "inPlanning": "N", "name": "Main Brewery", "locality": "Regency Park", "openToPublic": "Y", "locationType": "micro", "region": "South Australia", "countryIsoCode": "AU", "longitude": 138.572611, "isClosed": "N", "phone": "61-(08)-8440-1800", "streetAddress": "461 South Road", "createDate": "2012-01-03 02:41:51", "status": "verified", "updateDate": "2014-07-23 19:11:34", "country": {"displayName": "Australia", "name": "AUSTRALIA", "isoThree": "AUS", "createDate": "2012-01-03 02:41:33", "numberCode": 36, "isoCode": "AU"}, "latitude": -34.87283, "isPrimary": "Y", "id": "qIqpZc", "locationTypeDisplay": "Micro Brewery", "statusDisplay": "Verified"}], "updateDate": "2014-02-11 23:21:08", "images": {"large": "https://s3.amazonaws.com/brewerydbapi/brewery/MHv8Pt/upload_wP5Gh8-large.png", "medium": "https://s3.amazonaws.com/brewerydbapi/brewery/MHv8Pt/upload_wP5Gh8-medium.png", "icon": "https://s3.amazonaws.com/brewerydbapi/brewery/MHv8Pt/upload_wP5Gh8-icon.png"}, "id": "MHv8Pt", "name": "Coopers Brewery"}], "description": "Guaranteed to turn heads, this is the beer that inspired a new generation of ale drinkers. With its fruity character, and robust flavour, Coopers Pale Ale is perfect for every occasion. \r\n\r\nNaturally fermented in the 'Burton-on-Trent' style, a secondary fermentation creates the trademark sediment that gives 'Pale' its fine cloudy appearance. This cloudy residue can be stirred through the beer by tipping or rolling the bottle before drinking. \r\n\r\nPale Ale has no additives or preservatives.", "statusDisplay": "Verified", "createDate": "2012-01-03 02:43:53", "labels": {"large": "https://s3.amazonaws.com/brewerydbapi/beer/WakiQN/upload_aVxhux-large.png", "medium": "https://s3.amazonaws.com/brewerydbapi/beer/WakiQN/upload_aVxhux-medium.png", "icon": "https://s3.amazonaws.com/brewerydbapi/beer/WakiQN/upload_aVxhux-icon.png"}, "style": {"category": {"createDate": "2012-03-21 20:06:45", "id": 1, "name": "British Origin Ales"}, "ogMin": "1.033", "description": "Ordinary bitter is gold to copper colored with medium bitterness, light to medium body, and low to medium residual malt sweetness. Hop flavor and aroma character may be evident at the brewer's discretion. Mild carbonation traditionally characterizes draft-cask versions, but in bottled versions, a slight increase in carbon dioxide content is acceptable. Fruity-ester character and very low diacetyl (butterscotch) character are acceptable in aroma and flavor, but should be minimized in this form of bitter. Chill haze is allowable at cold temperatures. (English and American hop character may be specified in subcategories.)", "createDate": "2012-03-21 20:06:45", "ibuMin": "20", "categoryId": 1, "srmMax": "12", "ibuMax": "35", "abvMin": "3", "fgMin": "1.006", "fgMax": "1.012", "abvMax": "4.1", "id": 3, "srmMin": "5", "name": "Ordinary Bitter"}, "name": "Original Pale Ale", "glass": {"createDate": "2012-01-03 02:41:33", "id": 5, "name": "Pint"}, "updateDate": "2013-11-29 17:27:06", "abv": "4.5", "styleId": 3, "availableId": 1, "id": "WakiQN", "glasswareId": 5}, {"status": "verified", "isOrganic": "N", "statusDisplay": "Verified", "createDate": "2012-01-03 02:43:53", "breweries": [{"status": "verified", "isOrganic": "N", "statusDisplay": "Verified", "createDate": "2012-01-03 02:42:00", "locations": [{"inPlanning": "N", "countryIsoCode": "DE", "name": "Main Brewery", "locality": "Kulmbach", "openToPublic": "Y", "locationType": "micro", "region": "Bayern", "longitude": 11.45865, "isClosed": "N", "createDate": "2012-01-03 02:42:00", "status": "verified", "updateDate": "2014-07-23 19:11:34", "country": {"displayName": "Germany", "name": "GERMANY", "isoThree": "DEU", "createDate": "2012-01-03 02:41:33", "numberCode": 276, "isoCode": "DE"}, "latitude": 50.10717, "isPrimary": "Y", "id": "4Hyqzn", "locationTypeDisplay": "Micro Brewery", "statusDisplay": "Verified"}], "updateDate": "2012-03-21 19:06:07", "id": "T7p9M6", "name": "Kulmbacher Mnchshof Bru"}], "updateDate": "2012-03-22 13:04:51", "id": "CXQkP9", "name": "Original Pils"}, {"status": "verified", "isOrganic": "N", "statusDisplay": "Verified", "createDate": "2012-01-03 02:43:53", "breweries": [{"status": "verified", "isOrganic": "N", "statusDisplay": "Verified", "createDate": "2012-01-03 02:41:57", "locations": [{"inPlanning": "N", "countryIsoCode": "DE", "name": "Main Brewery", "locality": "Cham", "openToPublic": "Y", "locationType": "micro", "region": "Bayern", "longitude": 12.64003, "isClosed": "N", "phone": "49-(0)9971-/-3301", "streetAddress": "Hofmarkstrae 15", "createDate": "2012-01-03 02:41:57", "status": "verified", "updateDate": "2014-07-23 19:11:34", "country": {"displayName": "Germany", "name": "GERMANY", "isoThree": "DEU", "createDate": "2012-01-03 02:41:33", "numberCode": 276, "isoCode": "DE"}, "latitude": 49.16695, "isPrimary": "Y", "id": "kl6De5", "locationTypeDisplay": "Micro Brewery", "statusDisplay": "Verified"}], "updateDate": "2012-03-21 19:06:07", "id": "EB3XVT", "name": "Hofmark Brauerei"}], "updateDate": "2012-03-22 13:04:44", "id": "9o3r89", "name": "Original Pils"}, {"status": "verified", "available": {"description": "Available year round as a staple beer.", "id": 1, "name": "Year Round"}, "isOrganic": "N", "breweries": [{"website": "http://www.grittys.com/", "established": "1988", "isOrganic": "N", "description": "Established in 1988 as Maine's Original Brewpub-the first to open it's doors in the state of Maine since prohibition-Gritty's has been at the forefront of Maine's leading craft beer industry introducing fresh English ales either on tap or on cask everyday for the last 20+ years! With the long wooden tables and cobblestone streets, the ambiance matches those of the hometown pubs in England and the people are just as merry! Come in for a pint, leave a fan for life. Gritty's...for what ales ya!", "statusDisplay": "Verified", "createDate": "2012-01-03 02:41:56", "locations": [{"status": "verified", "openToPublic": "Y", "isPrimary": "N", "hoursOfOperation": "Serving All Day 11am - CLOSING", "locationTypeDisplay": "Micro Brewery", "inPlanning": "N", "locality": "Portland", "createDate": "2012-01-03 02:41:56", "id": "jdCivW", "streetAddress": "396 Fore Street", "postalCode": "04101", "website": "http://www.grittys.com/", "statusDisplay": "Verified", "countryIsoCode": "US", "phone": "207-772-BREW", "isClosed": "N", "name": "Main Brewery & Brewpub", "latitude": 43.6563749, "locationType": "micro", "region": "Maine", "longitude": -70.2535061, "updateDate": "2014-07-23 19:11:34", "country": {"displayName": "United States", "name": "UNITED STATES", "isoThree": "USA", "createDate": "2012-01-03 02:41:33", "numberCode": 840, "isoCode": "US"}}, {"status": "verified", "openToPublic": "Y", "isPrimary": "N", "hoursOfOperation": "Serving All Day 11AM - CLOSING", "locationTypeDisplay": "Brewpub", "inPlanning": "N", "locality": "Freeport", "createDate": "2012-04-21 12:48:58", "id": "iNQxzm", "streetAddress": "Lower Main Street", "postalCode": "04032", "website": "http://www.grittys.com/freeport.php", "statusDisplay": "Verified", "countryIsoCode": "US", "phone": "207-865-4321", "isClosed": "N", "name": "Freeport", "latitude": 43.847718, "locationType": "brewpub", "region": "Maine", "longitude": -70.112766, "updateDate": "2014-07-23 19:11:34", "country": {"displayName": "United States", "name": "UNITED STATES", "isoThree": "USA", "createDate": "2012-01-03 02:41:33", "numberCode": 840, "isoCode": "US"}}, {"status": "verified", "openToPublic": "Y", "isPrimary": "Y", "hoursOfOperation": "Serving All Day 11AM - CLOSING", "locationTypeDisplay": "Brewpub", "inPlanning": "N", "locality": "Auburn", "createDate": "2012-04-21 12:50:04", "id": "Kh9m9D", "streetAddress": "68 Main Street", "postalCode": "04210", "website": "http://www.grittys.com/la.php", "statusDisplay": "Verified", "countryIsoCode": "US", "phone": "207-376-BREW", "isClosed": "N", "name": "Lewiston/Auburn", "latitude": 44.096639, "locationType": "brewpub", "region": "Maine", "longitude": -70.225021, "updateDate": "2014-07-23 19:11:34", "country": {"displayName": "United States", "name": "UNITED STATES", "isoThree": "USA", "createDate": "2012-01-03 02:41:33", "numberCode": 840, "isoCode": "US"}}], "status": "verified", "updateDate": "2013-02-10 13:39:37", "images": {"large": "https://s3.amazonaws.com/brewerydbapi/brewery/FmWw3u/upload_3XpjL0-large.png", "medium": "https://s3.amazonaws.com/brewerydbapi/brewery/FmWw3u/upload_3XpjL0-medium.png", "icon": "https://s3.amazonaws.com/brewerydbapi/brewery/FmWw3u/upload_3XpjL0-icon.png"}, "id": "FmWw3u", "name": "Gritty McDuff's Brewing Company"}], "description": "Original Pub Style harkens back to the very first brews Gritty's produced at our Portland Brew Pub back in 1988. \"We wanted to make a beer that captures what made people fall in love with craft brewing in the first place; a fresh, classic pale ale with plenty of hop character.\" says Brewmaster Ed Stebbins. \"This is the kind of beer that really started the whole Maine brewing revolution.\"\r\nOriginal Pub Style is a light copper-colored medium-bodied with a nice dry bite at the finish. A subtle combination of Cascade and Willamette hops give this ale a fine floral aroma and a slightly fruity aftertaste. The taste captures the freshness of a hand-crafted brew pub ale that goes right from the conditioning tank to your glass! Original Pub Style is a year-round release available in six and twelve packs all over the great state of Maine, and on draft at Gritty's Portland and Freeport brew pubs.", "name": "Original Pub Style Ale", "glass": {"createDate": "2012-01-03 02:41:33", "id": 5, "name": "Pint"}, "createDate": "2012-01-03 02:43:53", "labels": {"large": "https://s3.amazonaws.com/brewerydbapi/beer/ZMVFmJ/upload_gxzNhM-large.png", "medium": "https://s3.amazonaws.com/brewerydbapi/beer/ZMVFmJ/upload_gxzNhM-medium.png", "icon": "https://s3.amazonaws.com/brewerydbapi/beer/ZMVFmJ/upload_gxzNhM-icon.png"}, "style": {"category": {"createDate": "2012-03-21 20:06:45", "id": 3, "name": "North American Origin Ales"}, "ogMin": "1.044", "description": "American pale ales range from deep golden to copper in color. The style is characterized by fruity, floral and citrus-like American-variety hop character producing medium to medium-high hop bitterness, flavor, and aroma. Note that the \"traditional\" style of this beer has its origins with certain floral, fruity, citrus-like, piney, resinous, or sulfur-like American hop varietals. One or more of these hop characters is the perceived end, but the perceived hop characters may be a result of the skillful use of hops of other national origins. American pale ales have medium body and low to medium maltiness. Low caramel character is allowable. Fruity-ester flavor and aroma should be moderate to strong. Diacetyl should be absent or present at very low levels. Chill haze is allowable at cold temperatures.", "createDate": "2012-03-21 20:06:45", "ibuMin": "30", "categoryId": 3, "srmMax": "14", "ibuMax": "42", "abvMin": "4.5", "fgMin": "1.008", "fgMax": "1.014", "abvMax": "5.6", "id": 25, "srmMin": "6", "name": "American-Style Pale Ale"}, "id": "ZMVFmJ", "statusDisplay": "Verified", "updateDate": "2014-10-09 17:23:43", "abv": "4.5", "styleId": 25, "availableId": 1, "ibu": "20", "glasswareId": 5}, {"status": "verified", "isOrganic": "N", "breweries": [{"website": "http://www.blackshirtbrewingco.com/", "established": "2009", "isOrganic": "N", "description": "An artisanal brewing company that combines classic and timeless technique coupled with progressive innovation and unwavering commitment to quality to create the very pinnacle of beer. Our hand-crafted, hand-bottled beer will be available in fine restaurants and select retail establishments soon.", "statusDisplay": "Verified", "createDate": "2012-01-03 02:41:46", "locations": [{"status": "verified", "openToPublic": "Y", "isPrimary": "Y", "hoursOfOperation": "Wed - Fri: 5:00 pm - 9:00 pm\r\nSat: 2:00 pm - 9:00 pm", "locationTypeDisplay": "Micro Brewery", "inPlanning": "N", "locality": "Denver", "createDate": "2012-01-03 02:41:46", "id": "Thbhby", "streetAddress": "3719 Walnut Street", "postalCode": "80205", "website": "http://www.blackshirtbrewingco.com/", "statusDisplay": "Verified", "countryIsoCode": "US", "phone": "720-935-1615", "isClosed": "N", "name": "Main Brewery", "latitude": 39.769858, "locationType": "micro", "region": "Colorado", "longitude": -104.972962, "updateDate": "2014-07-23 19:11:34", "country": {"displayName": "United States", "name": "UNITED STATES", "isoThree": "USA", "createDate": "2012-01-03 02:41:33", "numberCode": 840, "isoCode": "US"}}], "status": "verified", "updateDate": "2013-09-24 12:43:58", "images": {"large": "https://s3.amazonaws.com/brewerydbapi/brewery/WbEVB5/upload_qOsEKc-large.png", "medium": "https://s3.amazonaws.com/brewerydbapi/brewery/WbEVB5/upload_qOsEKc-medium.png", "icon": "https://s3.amazonaws.com/brewerydbapi/brewery/WbEVB5/upload_qOsEKc-icon.png"}, "id": "WbEVB5", "name": "Black Shirt Brewing Company"}], "name": "Original Red Ale", "createDate": "2012-11-29 12:55:18", "labels": {"large": "https://s3.amazonaws.com/brewerydbapi/beer/y4Dkhm/upload_GAtujc-large.png", "medium": "https://s3.amazonaws.com/brewerydbapi/beer/y4Dkhm/upload_GAtujc-medium.png", "icon": "https://s3.amazonaws.com/brewerydbapi/beer/y4Dkhm/upload_GAtujc-icon.png"}, "style": {"category": {"createDate": "2012-03-21 20:06:45", "id": 3, "name": "North American Origin Ales"}, "ogMin": "1.048", "description": "American amber/red ales range from light copper to light brown in color. They are characterized by American-variety hops used to produce the perception of medium hop bitterness, flavor, and medium aroma. Amber ales have medium-high to high maltiness with medium to low caramel character. They should have medium to medium-high body. The style may have low levels of fruityester flavor and aroma. Diacetyl can be either absent or barely perceived at very low levels. Chill haze is allowable at cold temperatures. Slight yeast haze is acceptable for bottle-conditioned products.", "createDate": "2012-03-21 20:06:45", "ibuMin": "30", "categoryId": 3, "srmMax": "18", "ibuMax": "40", "abvMin": "4.5", "fgMin": "1.012", "fgMax": "1.018", "abvMax": "6", "id": 32, "srmMin": "11", "name": "American-Style Amber/Red Ale"}, "updateDate": "2013-11-04 19:12:22", "styleId": 32, "id": "y4Dkhm", "statusDisplay": "Verified"}, {"status": "verified", "isOrganic": "N", "breweries": [{"website": "http://www.oxbowbeer.com", "established": "2011", "isOrganic": "N", "description": "OXBOW is an American Farmhouse Brewery, specializing in traditional Belgian farmhouse beers with contemporary American influence. \r\n\r\nWe brew small batches of beer in a renovated barn on an 18 acre property in Newcastle, Maine.", "statusDisplay": "Verified", "createDate": "2012-01-03 02:42:05", "locations": [{"openToPublic": "Y", "isPrimary": "Y", "hoursOfOperation": "Growler fill on Friday afternoons from 2pm to 6pm", "locationTypeDisplay": "Micro Brewery", "inPlanning": "N", "locality": "Newcastle", "createDate": "2012-01-03 02:42:05", "id": "XIPWtQ", "postalCode": "04553", "extendedAddress": "274 Jones Woods Road", "status": "verified", "statusDisplay": "Verified", "yearOpened": "2011", "countryIsoCode": "US", "phone": "207-586-5211", "isClosed": "N", "name": "Main Brewery", "latitude": 44.082862, "locationType": "micro", "region": "Maine", "longitude": -69.562662, "updateDate": "2014-07-23 19:11:34", "country": {"displayName": "United States", "name": "UNITED STATES", "isoThree": "USA", "createDate": "2012-01-03 02:41:33", "numberCode": 840, "isoCode": "US"}}], "status": "verified", "updateDate": "2012-04-23 16:54:50", "images": {"large": "https://s3.amazonaws.com/brewerydbapi/brewery/qs9b4m/upload_zLTXC1-large.png", "medium": "https://s3.amazonaws.com/brewerydbapi/brewery/qs9b4m/upload_zLTXC1-medium.png", "icon": "https://s3.amazonaws.com/brewerydbapi/brewery/qs9b4m/upload_zLTXC1-icon.png"}, "id": "qs9b4m", "name": "Oxbow Brewing Company"}], "name": "Original Saison Ale", "statusDisplay": "Verified", "createDate": "2012-01-03 02:43:53", "labels": {"large": "https://s3.amazonaws.com/brewerydbapi/beer/lfcq1E/upload_tRplj8-large.png", "medium": "https://s3.amazonaws.com/brewerydbapi/beer/lfcq1E/upload_tRplj8-medium.png", "icon": "https://s3.amazonaws.com/brewerydbapi/beer/lfcq1E/upload_tRplj8-icon.png"}, "style": {"category": {"createDate": "2012-03-21 20:06:46", "id": 5, "name": "Belgian And French Origin Ales"}, "ogMin": "1.055", "description": "Beers in this category are golden to deep amber in color. There may be quite a variety of characters within this style. Generally: They are light to medium in body. Malt aroma is low to medium-low. Esters are medium to high in  aroma, while, complex alcohols, herbs, spices, low Brettanomyces character and even clove and smoke-like phenolics may or may not be evident in the overall balanced beer. Hop aroma and flavor may be at low to medium levels. Malt flavor is low but provides foundation for the overall balance. Hop bitterness is moderate to moderately assertive. Herb and/or spice flavors, including black pepper-like notes, may or may not be evident. Fruitiness from fermentation is generally in character. A balanced small amount of sour or acidic flavors is acceptable when in balance with other components. Earthy, cellar-like, musty aromas are okay. Diacetyl should not be perceived. Chill or slight yeast haze is okay. Often bottle conditioned with some yeast character and high carbonation. French & Belgian-Style Saison may have Brettanomyces characters that are slightly acidity, fruity, horsey, goaty and/or leather-like.", "createDate": "2012-03-21 20:06:46", "ibuMin": "20", "categoryId": 5, "srmMax": "14", "ibuMax": "40", "abvMin": "4.5", "fgMin": "1.004", "fgMax": "1.016", "abvMax": "8.5", "id": 72, "srmMin": "4", "name": "French & Belgian-Style Saison"}, "glass": {"createDate": "2012-01-03 02:41:33", "id": 5, "name": "Pint"}, "updateDate": "2014-10-08 18:19:15", "styleId": 72, "id": "lfcq1E", "glasswareId": 5}, {"status": "verified", "isOrganic": "N", "name": "Original Sin", "createDate": "2012-12-19 21:53:08", "breweries": [{"website": "http://www.abbeydalebrewery.co.uk", "status": "verified", "isOrganic": "N", "description": "We are proud to be a successful small business in and from Sheffield.\r\n\r\nWe were lucky enough to get in on the ground floor of the revival of craft beer, and canny enough to grow continually throughout our existence.\r\n\r\nWe have established Moonshine as a very popular local beer and all of our regular and special beers have a following somewhere - sometimes in the most unusual places!\r\n\r\nWe have one pub of our own, The Rising Sun in Nether Green, Sheffield where you can always try one (or more!) of at least six of our beers that are always on show alongside up to seven beers from other small breweries. Nearly all of these are sourced by swapping with like-minded brewers, proving that we like to share our love for all things beer related.", "statusDisplay": "Verified", "createDate": "2012-12-19 21:44:44", "locations": [{"inPlanning": "N", "countryIsoCode": "GB", "name": "Main Brewery", "locality": "Sheffield", "openToPublic": "Y", "locationType": "micro", "createDate": "2012-12-19 21:45:44", "longitude": -1.4772702, "isClosed": "N", "phone": "0114 281 2712", "streetAddress": "Unit 8, Aizlewood Road", "status": "verified", "updateDate": "2014-07-23 19:11:34", "country": {"displayName": "United Kingdom", "name": "UNITED KINGDOM", "isoThree": "GBR", "createDate": "2012-01-03 02:41:33", "numberCode": 826, "isoCode": "GB"}, "postalCode": "S8 0YX", "latitude": 53.360461, "isPrimary": "Y", "id": "YngH1r", "locationTypeDisplay": "Micro Brewery", "statusDisplay": "Verified"}], "updateDate": "2012-12-19 21:45:52", "images": {"large": "https://s3.amazonaws.com/brewerydbapi/brewery/1RvWY5/upload_X8mZn3-large.png", "medium": "https://s3.amazonaws.com/brewerydbapi/brewery/1RvWY5/upload_X8mZn3-medium.png", "icon": "https://s3.amazonaws.com/brewerydbapi/brewery/1RvWY5/upload_X8mZn3-icon.png"}, "id": "1RvWY5", "name": "Abbeydale Brewery"}], "style": {"category": {"createDate": "2012-03-21 20:06:45", "id": 3, "name": "North American Origin Ales"}, "ogMin": "1.05", "description": "Initial low to medium malt sweetness with a degree of caramel, chocolate and/or roasted coffee flavor with a distinctive dryroasted bitterness in the finish. Coffee-like roasted barley and roasted malt aromas are prominent. Some slight roasted malt acidity is permissible and a medium- to full-bodied mouthfeel is appropriate. Hop bitterness may be moderate to high. Hop aroma and flavor is moderate to high, often with American citrus-type and/or resiny hop character. The perception of fruity esters is low. Roasted malt/barley astringency may be low but not excessive. Diacetyl (butterscotch) should be negligible or not perceived. Head retention is excellent.", "createDate": "2012-03-21 20:06:46", "ibuMin": "35", "categoryId": 3, "srmMax": "40", "ibuMax": "60", "abvMin": "5.7", "fgMin": "1.01", "fgMax": "1.022", "abvMax": "8.8", "id": 42, "srmMin": "40", "name": "American-Style Stout"}, "updateDate": "2012-12-19 21:53:10", "abv": "4.9", "styleId": 42, "id": "TOySfM", "statusDisplay": "Verified"}, {"status": "verified", "isOrganic": "N", "breweries": [{"website": "http://origsin.com/", "established": "1997", "isOrganic": "N", "description": "In 1997, Original Sin\u2019s founder, Gidon Coll, set out on a mission to create a great American cider, both dry and natural. He extensively researched the history of cider and cider making and soon began sourcing the best apples and yeast strains. Supported by a local wine expert, he began mixing and testing in a small upstate New York winery, and brought his samples to NYC bars each week for feedback from owners, managers, and patrons. After six months, the first batch of O.S. was released to establishments in Brooklyn and Manhattan. Soon after, the product received critical acclaim from sources as diverse as The New York Times, New York Post, Paper Magazine, and Market Watch. Today, you can find our unique and acclaimed ciders in over half the country, with more regions being added every month.", "statusDisplay": "Verified", "createDate": "2012-05-30 20:17:11", "locations": [{"status": "verified", "openToPublic": "Y", "isPrimary": "Y", "id": "tytjle", "locationTypeDisplay": "Micro Brewery", "inPlanning": "N", "locality": "New York", "createDate": "2014-10-01 19:08:42", "streetAddress": "817 Broadway 10th Floor", "postalCode": "10003", "website": "http://www.origsin.com/", "statusDisplay": "Verified", "countryIsoCode": "US", "phone": "646-344-1087", "isClosed": "N", "name": "Original Sin", "latitude": 40.7331163, "locationType": "micro", "region": "New York", "longitude": -73.9913067, "updateDate": "2014-10-01 19:08:42", "country": {"displayName": "United States", "name": "UNITED STATES", "isoThree": "USA", "createDate": "2012-01-03 02:41:33", "numberCode": 840, "isoCode": "US"}}], "status": "verified", "updateDate": "2012-05-30 20:17:12", "images": {"large": "https://s3.amazonaws.com/brewerydbapi/brewery/EnDjqH/upload_DGiGbq-large.png", "medium": "https://s3.amazonaws.com/brewerydbapi/brewery/EnDjqH/upload_DGiGbq-medium.png", "icon": "https://s3.amazonaws.com/brewerydbapi/brewery/EnDjqH/upload_DGiGbq-icon.png"}, "id": "EnDjqH", "name": "Original Sin"}], "description": "A balanced cider combining the natural acid and sugar of apples with the tart qualities of elderberries.", "statusDisplay": "Verified", "createDate": "2014-07-23 21:02:46", "labels": {"large": "https://s3.amazonaws.com/brewerydbapi/beer/GMkhhG/upload_S6xTDm-large.png", "medium": "https://s3.amazonaws.com/brewerydbapi/beer/GMkhhG/upload_S6xTDm-medium.png", "icon": "https://s3.amazonaws.com/brewerydbapi/beer/GMkhhG/upload_S6xTDm-icon.png"}, "style": {"category": {"createDate": "2012-03-21 20:06:46", "id": 12, "name": "Mead, Cider, & Perry"}, "ogMin": "1.045", "description": "Variable, but should be a medium, refreshing drink. Sweet ciders must not be cloying. Dry ciders must not be too austere. An ideal cider serves well as a \u201csession\u201d drink, and suitably accompanies a wide variety of food.", "createDate": "2012-03-21 20:06:46", "ogMax": "1.065", "categoryId": 12, "abvMin": "5", "fgMin": "1", "fgMax": "1.02", "abvMax": "8", "id": 149, "name": "Common Cider"}, "updateDate": "2014-07-24 11:46:29", "abv": "5", "styleId": 149, "id": "GMkhhG", "name": "Original Sin Elderberry Cider"}, {"status": "verified", "available": {"description": "Available year round as a staple beer.", "id": 1, "name": "Year Round"}, "isOrganic": "N", "breweries": [{"website": "http://origsin.com/", "established": "1997", "isOrganic": "N", "description": "In 1997, Original Sin\u2019s founder, Gidon Coll, set out on a mission to create a great American cider, both dry and natural. He extensively researched the history of cider and cider making and soon began sourcing the best apples and yeast strains. Supported by a local wine expert, he began mixing and testing in a small upstate New York winery, and brought his samples to NYC bars each week for feedback from owners, managers, and patrons. After six months, the first batch of O.S. was released to establishments in Brooklyn and Manhattan. Soon after, the product received critical acclaim from sources as diverse as The New York Times, New York Post, Paper Magazine, and Market Watch. Today, you can find our unique and acclaimed ciders in over half the country, with more regions being added every month.", "statusDisplay": "Verified", "createDate": "2012-05-30 20:17:11", "locations": [{"status": "verified", "openToPublic": "Y", "isPrimary": "Y", "id": "tytjle", "locationTypeDisplay": "Micro Brewery", "inPlanning": "N", "locality": "New York", "createDate": "2014-10-01 19:08:42", "streetAddress": "817 Broadway 10th Floor", "postalCode": "10003", "website": "http://www.origsin.com/", "statusDisplay": "Verified", "countryIsoCode": "US", "phone": "646-344-1087", "isClosed": "N", "name": "Original Sin", "latitude": 40.7331163, "locationType": "micro", "region": "New York", "longitude": -73.9913067, "updateDate": "2014-10-01 19:08:42", "country": {"displayName": "United States", "name": "UNITED STATES", "isoThree": "USA", "createDate": "2012-01-03 02:41:33", "numberCode": 840, "isoCode": "US"}}], "status": "verified", "updateDate": "2012-05-30 20:17:12", "images": {"large": "https://s3.amazonaws.com/brewerydbapi/brewery/EnDjqH/upload_DGiGbq-large.png", "medium": "https://s3.amazonaws.com/brewerydbapi/brewery/EnDjqH/upload_DGiGbq-medium.png", "icon": "https://s3.amazonaws.com/brewerydbapi/brewery/EnDjqH/upload_DGiGbq-icon.png"}, "id": "EnDjqH", "name": "Original Sin"}], "description": "Original Sin is a crisp, clean cider that allows the natural flavors of the apple to speak for itself. Original Sin is a refreshing cider that can be enjoyed in a pub or a fine restaurant, or as a mixed drink.", "statusDisplay": "Verified", "createDate": "2012-05-30 20:18:28", "labels": {"large": "https://s3.amazonaws.com/brewerydbapi/beer/PRHAik/upload_ngv0TX-large.png", "medium": "https://s3.amazonaws.com/brewerydbapi/beer/PRHAik/upload_ngv0TX-medium.png", "icon": "https://s3.amazonaws.com/brewerydbapi/beer/PRHAik/upload_ngv0TX-icon.png"}, "style": {"category": {"createDate": "2012-03-21 20:06:46", "id": 12, "name": "Mead, Cider, & Perry"}, "ogMin": "1.045", "description": "Like a dry wine with complex flavors. The apple character must marry with the added fruit so that neither dominates the other.", "createDate": "2012-03-21 20:06:46", "ogMax": "1.07", "categoryId": 12, "abvMin": "5", "fgMin": "0.995", "fgMax": "1.01", "abvMax": "9", "id": 155, "name": "Fruit Cider"}, "name": "Original Sin Hard Cider", "glass": {"createDate": "2012-01-03 02:41:33", "id": 1, "name": "Flute"}, "updateDate": "2014-09-04 11:34:27", "abv": "6", "styleId": 155, "availableId": 1, "id": "PRHAik", "glasswareId": 1}, {"status": "verified", "isOrganic": "N", "description": "Made from fresh pressed Newtown Pippin Single Heirloom Varietal\u2028, first harvested in Queens, NY, in 1740.", "statusDisplay": "Verified", "createDate": "2014-07-23 21:06:21", "breweries": [{"website": "http://origsin.com/", "established": "1997", "isOrganic": "N", "description": "In 1997, Original Sin\u2019s founder, Gidon Coll, set out on a mission to create a great American cider, both dry and natural. He extensively researched the history of cider and cider making and soon began sourcing the best apples and yeast strains. Supported by a local wine expert, he began mixing and testing in a small upstate New York winery, and brought his samples to NYC bars each week for feedback from owners, managers, and patrons. After six months, the first batch of O.S. was released to establishments in Brooklyn and Manhattan. Soon after, the product received critical acclaim from sources as diverse as The New York Times, New York Post, Paper Magazine, and Market Watch. Today, you can find our unique and acclaimed ciders in over half the country, with more regions being added every month.", "statusDisplay": "Verified", "createDate": "2012-05-30 20:17:11", "locations": [{"status": "verified", "openToPublic": "Y", "isPrimary": "Y", "id": "tytjle", "locationTypeDisplay": "Micro Brewery", "inPlanning": "N", "locality": "New York", "createDate": "2014-10-01 19:08:42", "streetAddress": "817 Broadway 10th Floor", "postalCode": "10003", "website": "http://www.origsin.com/", "statusDisplay": "Verified", "countryIsoCode": "US", "phone": "646-344-1087", "isClosed": "N", "name": "Original Sin", "latitude": 40.7331163, "locationType": "micro", "region": "New York", "longitude": -73.9913067, "updateDate": "2014-10-01 19:08:42", "country": {"displayName": "United States", "name": "UNITED STATES", "isoThree": "USA", "createDate": "2012-01-03 02:41:33", "numberCode": 840, "isoCode": "US"}}], "status": "verified", "updateDate": "2012-05-30 20:17:12", "images": {"large": "https://s3.amazonaws.com/brewerydbapi/brewery/EnDjqH/upload_DGiGbq-large.png", "medium": "https://s3.amazonaws.com/brewerydbapi/brewery/EnDjqH/upload_DGiGbq-medium.png", "icon": "https://s3.amazonaws.com/brewerydbapi/brewery/EnDjqH/upload_DGiGbq-icon.png"}, "id": "EnDjqH", "name": "Original Sin"}], "style": {"category": {"createDate": "2012-03-21 20:06:46", "id": 12, "name": "Mead, Cider, & Perry"}, "ogMin": "1.045", "description": "Like a dry wine with complex flavors. The apple character must marry with the added fruit so that neither dominates the other.", "createDate": "2012-03-21 20:06:46", "ogMax": "1.07", "categoryId": 12, "abvMin": "5", "fgMin": "0.995", "fgMax": "1.01", "abvMax": "9", "id": 155, "name": "Fruit Cider"}, "updateDate": "2014-07-24 11:46:28", "abv": "6.7", "styleId": 155, "id": "V0CK08", "name": "Original Sin Newtown Pippin Hard Cider"}, {"status": "verified", "isOrganic": "N", "breweries": [{"website": "http://origsin.com/", "established": "1997", "isOrganic": "N", "description": "In 1997, Original Sin\u2019s founder, Gidon Coll, set out on a mission to create a great American cider, both dry and natural. He extensively researched the history of cider and cider making and soon began sourcing the best apples and yeast strains. Supported by a local wine expert, he began mixing and testing in a small upstate New York winery, and brought his samples to NYC bars each week for feedback from owners, managers, and patrons. After six months, the first batch of O.S. was released to establishments in Brooklyn and Manhattan. Soon after, the product received critical acclaim from sources as diverse as The New York Times, New York Post, Paper Magazine, and Market Watch. Today, you can find our unique and acclaimed ciders in over half the country, with more regions being added every month.", "statusDisplay": "Verified", "createDate": "2012-05-30 20:17:11", "locations": [{"status": "verified", "openToPublic": "Y", "isPrimary": "Y", "id": "tytjle", "locationTypeDisplay": "Micro Brewery", "inPlanning": "N", "locality": "New York", "createDate": "2014-10-01 19:08:42", "streetAddress": "817 Broadway 10th Floor", "postalCode": "10003", "website": "http://www.origsin.com/", "statusDisplay": "Verified", "countryIsoCode": "US", "phone": "646-344-1087", "isClosed": "N", "name": "Original Sin", "latitude": 40.7331163, "locationType": "micro", "region": "New York", "longitude": -73.9913067, "updateDate": "2014-10-01 19:08:42", "country": {"displayName": "United States", "name": "UNITED STATES", "isoThree": "USA", "createDate": "2012-01-03 02:41:33", "numberCode": 840, "isoCode": "US"}}], "status": "verified", "updateDate": "2012-05-30 20:17:12", "images": {"large": "https://s3.amazonaws.com/brewerydbapi/brewery/EnDjqH/upload_DGiGbq-large.png", "medium": "https://s3.amazonaws.com/brewerydbapi/brewery/EnDjqH/upload_DGiGbq-medium.png", "icon": "https://s3.amazonaws.com/brewerydbapi/brewery/EnDjqH/upload_DGiGbq-icon.png"}, "id": "EnDjqH", "name": "Original Sin"}], "description": "Two parts pear, one part magic.  A Dry cider fermented with champagne yeast.", "statusDisplay": "Verified", "createDate": "2014-07-23 21:39:51", "labels": {"large": "https://s3.amazonaws.com/brewerydbapi/beer/7Jv89Z/upload_WUArsF-large.png", "medium": "https://s3.amazonaws.com/brewerydbapi/beer/7Jv89Z/upload_WUArsF-medium.png", "icon": "https://s3.amazonaws.com/brewerydbapi/beer/7Jv89Z/upload_WUArsF-icon.png"}, "style": {"category": {"createDate": "2012-03-21 20:06:46", "id": 12, "name": "Mead, Cider, & Perry"}, "ogMin": "1.045", "description": "Like a dry wine with complex flavors. The apple character must marry with the added fruit so that neither dominates the other.", "createDate": "2012-03-21 20:06:46", "ogMax": "1.07", "categoryId": 12, "abvMin": "5", "fgMin": "0.995", "fgMax": "1.01", "abvMax": "9", "id": 155, "name": "Fruit Cider"}, "updateDate": "2014-07-24 11:46:25", "abv": "4.5", "styleId": 155, "id": "7Jv89Z", "name": "Original Sin Pear Cider"}], "numberOfPages": 683}