{"status": "success", "currentPage": 469, "totalResults": 34116, "data": [{"status": "verified", "isOrganic": "N", "breweries": [{"website": "http://www.redhillbrewery.com.au/", "established": "2004", "isOrganic": "N", "description": "Red Hill Brewery is a unique beer and food experience on the Mornington Peninsula.  Opened in 2004 by Karen and David Golding with an 800lt steam fired brewery producing 3 main beers, Golden Ale, Wheat Beer and Scotch Ale.  Seasonal Beers are producing through the year including Xmas Ale, Imperial Stout and other unique powerful chalenging beer styles.\r\n\r\nThe cafe is committed to serving real food at the Red Hill Brewery Eatery. Our food is influenced b the great beer loving nations of England, Belgium and Germany where the favorite dishes have developed over centuries according to how well they match the famous beer styles.", "statusDisplay": "Verified", "createDate": "2012-01-03 02:42:06", "locations": [{"status": "verified", "openToPublic": "Y", "isPrimary": "Y", "id": "Vmf00H", "locationTypeDisplay": "Micro Brewery", "inPlanning": "N", "locality": "Red Hill South", "createDate": "2012-01-03 02:42:06", "streetAddress": "88 Shoreham Rd", "postalCode": "3937", "website": "http://www.redhillbrewery.com.au/", "statusDisplay": "Verified", "yearOpened": "2004", "countryIsoCode": "AU", "phone": "03 59892959", "isClosed": "N", "name": "Main Brewery", "latitude": -38.3917441, "locationType": "micro", "region": "Victoria", "longitude": 145.0184082, "updateDate": "2014-07-23 19:11:34", "country": {"displayName": "Australia", "name": "AUSTRALIA", "isoThree": "AUS", "createDate": "2012-01-03 02:41:33", "numberCode": 36, "isoCode": "AU"}}], "status": "verified", "updateDate": "2014-02-11 23:09:32", "images": {"large": "https://s3.amazonaws.com/brewerydbapi/brewery/tnvnBm/upload_fHFCrN-large.png", "medium": "https://s3.amazonaws.com/brewerydbapi/brewery/tnvnBm/upload_fHFCrN-medium.png", "icon": "https://s3.amazonaws.com/brewerydbapi/brewery/tnvnBm/upload_fHFCrN-icon.png"}, "id": "tnvnBm", "name": "Red Hill Brewery"}], "description": "Based on one of our most popular seasonal brews, this is an unfiltered, clean & balanced pilsner.  A generous malt character imparts a slight sweetness which is balanced by a potent hop bitterness, achieved by 3 hefty additions of hop flowers in the boil.   A cold fermentation period follows when plenty of hop are steeped in the conditioning tanks creating a floral and spicy aroma.  Golden in colour with a dense white head, you will be left with the hoporific effect of having the corners of your mouth go up!", "statusDisplay": "Verified", "createDate": "2014-02-11 18:28:18", "labels": {"large": "https://s3.amazonaws.com/brewerydbapi/beer/r5Tu2y/upload_rMHCVx-large.png", "medium": "https://s3.amazonaws.com/brewerydbapi/beer/r5Tu2y/upload_rMHCVx-medium.png", "icon": "https://s3.amazonaws.com/brewerydbapi/beer/r5Tu2y/upload_rMHCVx-icon.png"}, "style": {"category": {"createDate": "2012-03-21 20:06:46", "id": 7, "name": "European-germanic Lager"}, "ogMin": "1.044", "description": "A classic German Pilsener is very light straw or golden in color and well hopped. Perception of hop bitterness is medium to high. Noble-type hop aroma and flavor are moderate and quite obvious. It is a well-attenuated, medium-light bodied beer, but a malty residual sweetness can be perceived in aroma and flavor. Very low levels of sweet corn-like dimethylsulfide (DMS) character are below most beer drinkers' taste thresholds and are usually not detectable except to the trained or sensitive palate. Other fermentation or hop related sulfur compounds, when perceived at low levels, may be characteristic of this style. Fruity esters and diacetyl should not be perceived. There should be no chill haze. Its head should be dense and rich.", "createDate": "2012-03-21 20:06:46", "ibuMin": "25", "categoryId": 7, "srmMax": "4", "ibuMax": "40", "abvMin": "4", "fgMin": "1.006", "fgMax": "1.012", "abvMax": "5", "id": 75, "srmMin": "3", "name": "German-Style Pilsener"}, "updateDate": "2014-02-12 00:01:42", "abv": "5.2", "styleId": 75, "id": "r5Tu2y", "name": "Pilsner"}, {"status": "verified", "isOrganic": "N", "name": "Pilsner", "statusDisplay": "Verified", "createDate": "2013-05-15 23:37:35", "breweries": [{"website": "http://dustbowlbrewing.com/", "status": "verified", "isOrganic": "N", "description": "Welcome to Dust Bowl Brewing Company located in Turlock, Ca. We are a small brewing company in the Central Valley of California. Our size allows us to have a very personal and passionate connection to each of our beers. We are continuously testing new flavors and styles to develop our selection of beers. Our goal is to help create a thriving beer culture in the Central Valley.\r\n\r\nOur company is a tribute to the strong-willed, gritty people of the Dust Bowl and Great Depression era. Inspired by the families who came west in search of a new start as well as those who stayed behind to weather the storm. This is great beer born of hard times. Storm\u2019s comin\u2019!", "statusDisplay": "Verified", "createDate": "2012-01-03 02:41:53", "locations": [{"website": "http://dustbowlbrewing.com/", "inPlanning": "N", "name": "Main Brewery", "locality": "Turlock", "openToPublic": "Y", "locationType": "micro", "region": "California", "countryIsoCode": "US", "longitude": -120.883543, "isClosed": "N", "latitude": 37.484303, "streetAddress": "3100 Spengler Way", "createDate": "2012-01-03 02:41:53", "status": "verified", "updateDate": "2014-07-23 19:11:34", "country": {"displayName": "United States", "name": "UNITED STATES", "isoThree": "USA", "createDate": "2012-01-03 02:41:33", "numberCode": 840, "isoCode": "US"}, "postalCode": "95380", "isPrimary": "Y", "id": "lKsltx", "locationTypeDisplay": "Micro Brewery", "statusDisplay": "Verified"}], "updateDate": "2012-10-23 02:48:15", "images": {"large": "https://s3.amazonaws.com/brewerydbapi/brewery/Xnf2WT/upload_kYXBBx-large.png", "medium": "https://s3.amazonaws.com/brewerydbapi/brewery/Xnf2WT/upload_kYXBBx-medium.png", "icon": "https://s3.amazonaws.com/brewerydbapi/brewery/Xnf2WT/upload_kYXBBx-icon.png"}, "id": "Xnf2WT", "name": "Dust Bowl Brewing Company"}], "style": {"category": {"createDate": "2012-03-21 20:06:46", "id": 7, "name": "European-germanic Lager"}, "ogMin": "1.044", "description": "A classic German Pilsener is very light straw or golden in color and well hopped. Perception of hop bitterness is medium to high. Noble-type hop aroma and flavor are moderate and quite obvious. It is a well-attenuated, medium-light bodied beer, but a malty residual sweetness can be perceived in aroma and flavor. Very low levels of sweet corn-like dimethylsulfide (DMS) character are below most beer drinkers' taste thresholds and are usually not detectable except to the trained or sensitive palate. Other fermentation or hop related sulfur compounds, when perceived at low levels, may be characteristic of this style. Fruity esters and diacetyl should not be perceived. There should be no chill haze. Its head should be dense and rich.", "createDate": "2012-03-21 20:06:46", "ibuMin": "25", "categoryId": 7, "srmMax": "4", "ibuMax": "40", "abvMin": "4", "fgMin": "1.006", "fgMax": "1.012", "abvMax": "5", "id": 75, "srmMin": "3", "name": "German-Style Pilsener"}, "glass": {"createDate": "2012-01-03 02:41:33", "id": 4, "name": "Pilsner"}, "updateDate": "2013-05-24 00:31:42", "abv": "5.3", "styleId": 75, "id": "0ASs8Y", "glasswareId": 4}, {"status": "verified", "isOrganic": "N", "statusDisplay": "Verified", "createDate": "2012-01-03 02:43:57", "breweries": [{"website": "http://www.rockbottom.com/", "established": "1998", "isOrganic": "N", "description": "Our brewers eat, drink and sleep beer. They\u2019re equal parts scientist, artist and beer geek. So, while every Rock Bottom brewer is passionate about their craft, they also put their own signature into every beer.\r\n\r\nIn other words, there is a unique beer menu at every Rock Bottom in addition to our core line up of consistent flavor profiles that you can expect at any Rock Bottom you visit nationwide.\r\n\r\nBut, you\u2019re thirsty and want to know what beers you can expect down here, right?", "statusDisplay": "Verified", "createDate": "2012-01-03 02:42:15", "locations": [{"status": "verified", "openToPublic": "Y", "isPrimary": "N", "hoursOfOperation": "Sun: 11:00 AM - 11:00 PM\r\nMon-Sat: 11:00 AM - 2:00  AM", "locationTypeDisplay": "Brewpub", "inPlanning": "N", "locality": "Charlotte", "createDate": "2012-01-03 02:42:15", "id": "P2TqjM", "streetAddress": "401 North Tryon Street", "postalCode": "28202", "website": "http://www.rockbottomsouth.com/", "statusDisplay": "Verified", "yearOpened": "1998", "countryIsoCode": "US", "phone": "704-334-2739", "isClosed": "N", "name": "Charlotte", "latitude": 35.230194, "locationType": "brewpub", "region": "North Carolina", "longitude": -80.839336, "updateDate": "2014-07-23 19:11:34", "country": {"displayName": "United States", "name": "UNITED STATES", "isoThree": "USA", "createDate": "2012-01-03 02:41:33", "numberCode": 840, "isoCode": "US"}}, {"openToPublic": "Y", "isPrimary": "N", "id": "1MCesn", "locationTypeDisplay": "Brewpub", "inPlanning": "N", "locality": "Chicago", "createDate": "2012-01-03 02:42:15", "streetAddress": "1 West Grand Avenue", "postalCode": "60610", "status": "verified", "statusDisplay": "Verified", "yearOpened": "1998", "countryIsoCode": "US", "phone": "1-312-755-9339", "isClosed": "N", "name": "Chicago", "latitude": 41.891512, "locationType": "brewpub", "region": "Illinois", "longitude": -87.628412, "updateDate": "2014-07-23 19:11:34", "country": {"displayName": "United States", "name": "UNITED STATES", "isoThree": "USA", "createDate": "2012-01-03 02:41:33", "numberCode": 840, "isoCode": "US"}}, {"status": "verified", "openToPublic": "Y", "isPrimary": "N", "id": "dfvT2E", "locationTypeDisplay": "Brewpub", "inPlanning": "N", "locality": "Cincinnati", "createDate": "2012-01-03 02:42:15", "streetAddress": "10 Fountain Square", "postalCode": "45202", "website": "http://www.rockbottom.com/cincinnati", "statusDisplay": "Verified", "yearOpened": "1998", "countryIsoCode": "US", "phone": "513-621-1588", "isClosed": "N", "name": "Cincinnati", "latitude": 39.101088, "locationType": "brewpub", "region": "Ohio", "longitude": -84.512678, "updateDate": "2014-07-23 19:11:34", "country": {"displayName": "United States", "name": "UNITED STATES", "isoThree": "USA", "createDate": "2012-01-03 02:41:33", "numberCode": 840, "isoCode": "US"}}, {"openToPublic": "Y", "isPrimary": "N", "id": "FzeHBf", "locationTypeDisplay": "Brewpub", "inPlanning": "N", "locality": "Denver", "createDate": "2012-01-03 02:42:15", "streetAddress": "1001 16th Street #A-100", "postalCode": "80202", "status": "verified", "statusDisplay": "Verified", "yearOpened": "1998", "countryIsoCode": "US", "phone": "1-303-534-7616", "isClosed": "N", "name": "Denver Downtown", "latitude": 39.7474837, "locationType": "brewpub", "region": "Colorado", "longitude": -104.9948016, "updateDate": "2014-07-23 19:11:34", "country": {"displayName": "United States", "name": "UNITED STATES", "isoThree": "USA", "createDate": "2012-01-03 02:41:33", "numberCode": 840, "isoCode": "US"}}, {"openToPublic": "Y", "isPrimary": "N", "id": "sJN5L6", "locationTypeDisplay": "Brewpub", "inPlanning": "N", "locality": "West Des Moines", "createDate": "2012-01-03 02:42:15", "streetAddress": "4508 University Ave", "postalCode": "50266", "status": "verified", "statusDisplay": "Verified", "yearOpened": "1998", "countryIsoCode": "US", "phone": "515-267-8900", "isClosed": "N", "name": "Des Moines", "latitude": 41.6003698, "locationType": "brewpub", "region": "Iowa", "longitude": -93.7657443, "updateDate": "2014-07-23 19:11:34", "country": {"displayName": "United States", "name": "UNITED STATES", "isoThree": "USA", "createDate": "2012-01-03 02:41:33", "numberCode": 840, "isoCode": "US"}}, {"openToPublic": "Y", "isPrimary": "N", "id": "Ud5tUX", "locationTypeDisplay": "Brewpub", "inPlanning": "N", "locality": "Milwaukee", "createDate": "2012-01-03 02:42:15", "streetAddress": "740 North Plankinton Avenue", "postalCode": "53203", "status": "verified", "statusDisplay": "Verified", "yearOpened": "1998", "countryIsoCode": "US", "phone": "1-414-276-3030", "isClosed": "N", "name": "Milwaukee", "latitude": 43.039585, "locationType": "brewpub", "region": "Wisconsin", "longitude": -87.911765, "updateDate": "2014-07-23 19:11:34", "country": {"displayName": "United States", "name": "UNITED STATES", "isoThree": "USA", "createDate": "2012-01-03 02:41:33", "numberCode": 840, "isoCode": "US"}}, {"openToPublic": "Y", "isPrimary": "N", "id": "6wohdy", "locationTypeDisplay": "Brewpub", "inPlanning": "N", "locality": "Minneapolis", "createDate": "2012-01-03 02:42:15", "streetAddress": "800 LaSalle Plaza", "postalCode": "55402", "status": "verified", "statusDisplay": "Verified", "yearOpened": "1998", "countryIsoCode": "US", "phone": "1-612-332-2739", "isClosed": "N", "name": "Minneapolis", "latitude": 44.976479, "locationType": "brewpub", "region": "Minnesota", "longitude": -93.27472, "updateDate": "2014-07-23 19:11:34", "country": {"displayName": "United States", "name": "UNITED STATES", "isoThree": "USA", "createDate": "2012-01-03 02:41:33", "numberCode": 840, "isoCode": "US"}}, {"status": "verified", "openToPublic": "Y", "isPrimary": "N", "hoursOfOperation": "Mon - Sun: Open at 11am", "locationTypeDisplay": "Brewpub", "inPlanning": "N", "locality": "Portland", "createDate": "2012-01-03 02:42:15", "id": "jGXVnP", "streetAddress": "206 SW Morrison St", "postalCode": "97204", "website": "http://www.rockbottom.com/", "statusDisplay": "Verified", "yearOpened": "1998", "countryIsoCode": "US", "phone": "503-796-BREW", "isClosed": "N", "name": "Portland", "latitude": 45.518008, "locationType": "brewpub", "region": "Oregon", "longitude": -122.67482, "updateDate": "2014-07-23 19:11:34", "country": {"displayName": "United States", "name": "UNITED STATES", "isoThree": "USA", "createDate": "2012-01-03 02:41:33", "numberCode": 840, "isoCode": "US"}}, {"openToPublic": "Y", "isPrimary": "N", "id": "LaGJwq", "locationTypeDisplay": "Brewpub", "inPlanning": "N", "locality": "Campbell", "createDate": "2012-01-03 02:42:15", "streetAddress": "1875 South Bascom Avenue #700", "postalCode": "95008", "status": "verified", "statusDisplay": "Verified", "yearOpened": "1998", "countryIsoCode": "US", "phone": "1-408-377-0707", "isClosed": "N", "name": "Campbell", "latitude": 37.289111, "locationType": "brewpub", "region": "California", "longitude": -121.932449, "updateDate": "2014-07-23 19:11:34", "country": {"displayName": "United States", "name": "UNITED STATES", "isoThree": "USA", "createDate": "2012-01-03 02:41:33", "numberCode": 840, "isoCode": "US"}}, {"openToPublic": "Y", "isPrimary": "N", "id": "xtz86H", "locationTypeDisplay": "Brewpub", "inPlanning": "N", "locality": "Englewood", "createDate": "2012-01-03 02:42:15", "streetAddress": "9627 East County Line Road", "postalCode": "80112", "status": "verified", "statusDisplay": "Verified", "yearOpened": "1998", "countryIsoCode": "US", "phone": "1-303-792-9090", "isClosed": "N", "name": "South Denver", "latitude": 39.567775, "locationType": "brewpub", "region": "Colorado", "longitude": -104.873876, "updateDate": "2014-07-23 19:11:34", "country": {"displayName": "United States", "name": "UNITED STATES", "isoThree": "USA", "createDate": "2012-01-03 02:41:33", "numberCode": 840, "isoCode": "US"}}, {"status": "verified", "openToPublic": "Y", "isPrimary": "N", "hoursOfOperation": "Sunday - Thursday: 11am - 1am\r\nFriday - Saturday: 11am - 2am", "locationTypeDisplay": "Brewpub", "inPlanning": "N", "locality": "Bethesda", "createDate": "2012-05-14 20:29:40", "id": "z9H6HJ", "streetAddress": "7900 Norfolk Ave", "postalCode": "20814", "website": "http://www.rockbottom.com/bethesda", "statusDisplay": "Verified", "countryIsoCode": "US", "phone": "301-652-1311", "isClosed": "N", "name": "Bethesda", "latitude": 38.988988, "locationType": "brewpub", "region": "Maryland", "longitude": -77.097413, "updateDate": "2014-07-23 19:11:34", "country": {"displayName": "United States", "name": "UNITED STATES", "isoThree": "USA", "createDate": "2012-01-03 02:41:33", "numberCode": 840, "isoCode": "US"}}, {"status": "verified", "openToPublic": "Y", "isPrimary": "Y", "hoursOfOperation": "Sun - Thur: 11am to 11pm \r\nFri - Sat: 11am to midnight", "locationTypeDisplay": "Brewpub", "inPlanning": "N", "locality": "Westminster", "createDate": "2012-06-10 22:26:13", "id": "xpS5TS", "streetAddress": "14694 Orchard Parkway", "postalCode": "80023", "website": "http://www.rockbottom.com/westminster-orchard-town-center", "statusDisplay": "Verified", "countryIsoCode": "US", "phone": "303-255-1625", "isClosed": "N", "name": "Westminster", "latitude": 39.962965, "locationType": "brewpub", "region": "Colorado", "longitude": -104.993611, "updateDate": "2014-07-23 19:11:34", "country": {"displayName": "United States", "name": "UNITED STATES", "isoThree": "USA", "createDate": "2012-01-03 02:41:33", "numberCode": 840, "isoCode": "US"}}, {"status": "verified", "openToPublic": "Y", "isPrimary": "N", "hoursOfOperation": "Mon-Fri: Opens at 11:am\r\nSat & Sun: Opens at 11:30am", "locationTypeDisplay": "Brewpub", "inPlanning": "N", "locality": "Indianapolis", "createDate": "2012-07-13 00:40:34", "id": "igkxXX", "streetAddress": "2801 Lake Circle Drive", "postalCode": "46268", "website": "http://www.rockbottom.com/indianapolis-college-park", "statusDisplay": "Verified", "countryIsoCode": "US", "phone": "317-471-8840", "isClosed": "N", "name": "Indianapolis College Park", "latitude": 39.913214, "locationType": "brewpub", "region": "Indiana", "longitude": -86.209555, "updateDate": "2014-07-23 19:11:34", "country": {"displayName": "United States", "name": "UNITED STATES", "isoThree": "USA", "createDate": "2012-01-03 02:41:33", "numberCode": 840, "isoCode": "US"}}, {"status": "verified", "openToPublic": "Y", "isPrimary": "N", "id": "BxeC9H", "locationTypeDisplay": "Brewpub", "inPlanning": "N", "locality": "Indianapolis", "createDate": "2012-07-13 00:55:49", "streetAddress": "10 West Washington", "postalCode": "46204", "website": "http://www.rockbottom.com/indianapolis-downtown", "statusDisplay": "Verified", "countryIsoCode": "US", "phone": "317-681-8180", "isClosed": "N", "name": "Indianapolis Downtown", "latitude": 39.767118, "locationType": "brewpub", "region": "Indiana", "longitude": -86.158395, "updateDate": "2014-07-23 19:11:34", "country": {"displayName": "United States", "name": "UNITED STATES", "isoThree": "USA", "createDate": "2012-01-03 02:41:33", "numberCode": 840, "isoCode": "US"}}, {"status": "verified", "openToPublic": "Y", "isPrimary": "N", "hoursOfOperation": "Sun - Wed:  11am - Midnight\r\nThurs - Sat:  11am - 1am", "locationTypeDisplay": "Brewpub", "inPlanning": "N", "locality": "Glendale", "createDate": "2012-10-04 14:16:33", "id": "yUxVOc", "streetAddress": "7640 W Bell Rd", "postalCode": "85308", "website": "http://www.rockbottom.com/arrowhead", "statusDisplay": "Verified", "countryIsoCode": "US", "phone": "(623) 878-8822", "isClosed": "N", "name": "Arrowhead", "latitude": 33.638321, "locationType": "brewpub", "region": "Arizona", "longitude": -112.223181, "updateDate": "2014-07-23 19:11:34", "country": {"displayName": "United States", "name": "UNITED STATES", "isoThree": "USA", "createDate": "2012-01-03 02:41:33", "numberCode": 840, "isoCode": "US"}}, {"status": "verified", "openToPublic": "Y", "isPrimary": "N", "hoursOfOperation": "Mon - Thurs:  11am - 11pm\r\nFri - Sat:  11am - 1am\r\nSun:  11am - 11pm", "locationTypeDisplay": "Brewpub", "inPlanning": "N", "locality": "Phoenix", "createDate": "2012-10-04 14:18:59", "id": "aogJY3", "streetAddress": "21001 North Tatum Blvd", "postalCode": "85050", "website": "http://www.rockbottom.com/desert-ridge", "statusDisplay": "Verified", "countryIsoCode": "US", "phone": "480.513.9125", "isClosed": "N", "name": "Desert Ridge", "latitude": 33.677189, "locationType": "brewpub", "region": "Arizona", "longitude": -111.977311, "updateDate": "2014-07-23 19:11:34", "country": {"displayName": "United States", "name": "UNITED STATES", "isoThree": "USA", "createDate": "2012-01-03 02:41:33", "numberCode": 840, "isoCode": "US"}}, {"status": "verified", "openToPublic": "Y", "isPrimary": "N", "hoursOfOperation": "Mon - Thurs:  11am - midnight\r\nFri:  11am - 1am\r\nSat:  11:30am - 1am\r\nSun:  11:30am - midnight", "locationTypeDisplay": "Brewpub", "inPlanning": "N", "locality": "La Jolla", "createDate": "2012-10-04 14:21:31", "id": "D8P7hU", "streetAddress": "8980 Villa La Jolla Drive", "postalCode": "92037", "website": "http://www.rockbottom.com/la-jolla", "statusDisplay": "Verified", "countryIsoCode": "US", "phone": "858.450.9277", "isClosed": "N", "name": "La Jolla", "latitude": 32.871176, "locationType": "brewpub", "region": "California", "longitude": -117.233853, "updateDate": "2014-07-23 19:11:34", "country": {"displayName": "United States", "name": "UNITED STATES", "isoThree": "USA", "createDate": "2012-01-03 02:41:33", "numberCode": 840, "isoCode": "US"}}, {"status": "verified", "openToPublic": "Y", "isPrimary": "N", "id": "pS7vqv", "locationTypeDisplay": "Brewpub", "inPlanning": "N", "locality": "Long Beach", "createDate": "2012-10-04 14:22:37", "streetAddress": "One Pine Avenue", "postalCode": "90802", "website": "http://www.rockbottom.com/long-beach", "statusDisplay": "Verified", "countryIsoCode": "US", "phone": "562.308.2255", "isClosed": "N", "name": "Long Beach", "latitude": 33.767143, "locationType": "brewpub", "region": "California", "longitude": -118.192407, "updateDate": "2014-07-23 19:11:34", "country": {"displayName": "United States", "name": "UNITED STATES", "isoThree": "USA", "createDate": "2012-01-03 02:41:33", "numberCode": 840, "isoCode": "US"}}, {"status": "verified", "openToPublic": "Y", "isPrimary": "N", "hoursOfOperation": "Sun - Thur:  11:30am - midnight\r\nFri - Sat:  11:30am - 2am", "locationTypeDisplay": "Brewpub", "inPlanning": "N", "locality": "San Diego", "createDate": "2012-10-04 14:23:53", "id": "Rlqk0M", "streetAddress": "401 G Street", "postalCode": "92101", "website": "http://www.rockbottom.com/san-diego", "statusDisplay": "Verified", "countryIsoCode": "US", "phone": "619.231.7000", "isClosed": "N", "name": "San Diego", "latitude": 32.712573, "locationType": "brewpub", "region": "California", "longitude": -117.160962, "updateDate": "2014-07-23 19:11:34", "country": {"displayName": "United States", "name": "UNITED STATES", "isoThree": "USA", "createDate": "2012-01-03 02:41:33", "numberCode": 840, "isoCode": "US"}}, {"status": "verified", "openToPublic": "Y", "isPrimary": "N", "hoursOfOperation": "Sun - Thurs:  11am - 11pm\r\nFri - Sat:  11am - Midnight", "locationTypeDisplay": "Brewpub", "inPlanning": "N", "locality": "Colorado Springs", "createDate": "2012-10-04 14:25:47", "id": "45ZY9n", "streetAddress": "3316 Cinema Point Drive", "postalCode": "80922", "extendedAddress": "First and Main Town Center", "website": "http://www.rockbottom.com/colorado-springs", "statusDisplay": "Verified", "countryIsoCode": "US", "phone": "719.550.3586", "isClosed": "N", "name": "Colorado Springs", "latitude": 38.8971, "locationType": "brewpub", "region": "Colorado", "longitude": -104.701424, "updateDate": "2014-07-23 19:11:34", "country": {"displayName": "United States", "name": "UNITED STATES", "isoThree": "USA", "createDate": "2012-01-03 02:41:33", "numberCode": 840, "isoCode": "US"}}, {"status": "verified", "openToPublic": "Y", "isPrimary": "N", "id": "gPIMJE", "locationTypeDisplay": "Brewpub", "inPlanning": "N", "locality": "Denver", "createDate": "2012-10-04 14:27:22", "streetAddress": "9100 N Pena Blvd", "postalCode": "80249", "extendedAddress": "Concourse C", "website": "http://www.rockbottom.com/denver-international-airport", "statusDisplay": "Verified", "countryIsoCode": "US", "phone": "303.342.6667", "isClosed": "N", "name": "Denver International Airport", "latitude": 39.839076, "locationType": "brewpub", "region": "Colorado", "longitude": -104.676111, "updateDate": "2014-07-23 19:11:34", "country": {"displayName": "United States", "name": "UNITED STATES", "isoThree": "USA", "createDate": "2012-01-03 02:41:33", "numberCode": 840, "isoCode": "US"}}, {"status": "verified", "openToPublic": "Y", "isPrimary": "N", "hoursOfOperation": "Sun - Thur:  11am - 11pm\r\nFri - Sat:  11am - Midnight", "locationTypeDisplay": "Brewpub", "inPlanning": "N", "locality": "Loveland", "createDate": "2012-10-04 14:28:30", "id": "Ij1ASf", "streetAddress": "6025 Sky Pond Drive", "postalCode": "80538", "website": "http://www.rockbottom.com/loveland-centerra-promenade", "statusDisplay": "Verified", "countryIsoCode": "US", "phone": "970.622.2077", "isClosed": "N", "name": "Loveland Centerra Promenade", "latitude": 40.410854, "locationType": "brewpub", "region": "Colorado", "longitude": -104.989839, "updateDate": "2014-07-23 19:11:34", "country": {"displayName": "United States", "name": "UNITED STATES", "isoThree": "USA", "createDate": "2012-01-03 02:41:33", "numberCode": 840, "isoCode": "US"}}, {"status": "verified", "openToPublic": "Y", "isPrimary": "N", "hoursOfOperation": "Sun - Thurs:  11am - Midnight\r\nFri - Sat:  11am - 1am", "locationTypeDisplay": "Brewpub", "inPlanning": "N", "locality": "Westminster", "createDate": "2012-10-04 14:30:24", "id": "v2jyc6", "streetAddress": "10633 Westminster Blvd", "postalCode": "80020", "extendedAddress": "Suite 900", "website": "http://www.rockbottom.com/westminster-promenade", "statusDisplay": "Verified", "countryIsoCode": "US", "phone": "720.566.0198", "isClosed": "N", "name": "Westminster Promenade", "latitude": 39.890364, "locationType": "brewpub", "region": "Colorado", "longitude": -105.068326, "updateDate": "2014-07-23 19:11:34", "country": {"displayName": "United States", "name": "UNITED STATES", "isoThree": "USA", "createDate": "2012-01-03 02:41:33", "numberCode": 840, "isoCode": "US"}}, {"status": "verified", "openToPublic": "Y", "isPrimary": "N", "hoursOfOperation": "Sun - Thur:  11am - 1am\r\nFri - Sat:  11am - 2am", "locationTypeDisplay": "Brewpub", "inPlanning": "N", "locality": "Lombard", "createDate": "2012-10-04 14:31:59", "id": "XMSmlX", "streetAddress": "94 Yorktown Center", "postalCode": "60148", "website": "http://www.rockbottom.com/lombard-yorktown-center", "statusDisplay": "Verified", "countryIsoCode": "US", "phone": "630.424.1550", "isClosed": "N", "name": "Lombard Yorktown Center", "latitude": 41.837313, "locationType": "brewpub", "region": "Illinois", "longitude": -88.010078, "updateDate": "2014-07-23 19:11:34", "country": {"displayName": "United States", "name": "UNITED STATES", "isoThree": "USA", "createDate": "2012-01-03 02:41:33", "numberCode": 840, "isoCode": "US"}}, {"status": "verified", "openToPublic": "Y", "isPrimary": "N", "hoursOfOperation": "Sun - Tues:  1am - Midnight\r\nWed - Thur:  11am - 1am\r\nFri - Sat:  11am - 2am", "locationTypeDisplay": "Brewpub", "inPlanning": "N", "locality": "Orland Park", "createDate": "2012-10-04 14:33:51", "id": "9gBauy", "streetAddress": "16156 South La Grange Road", "postalCode": "60467", "website": "http://www.rockbottom.com/orland-park", "statusDisplay": "Verified", "countryIsoCode": "US", "phone": "708.226.0021", "isClosed": "N", "name": "Orland Park", "latitude": 41.59588, "locationType": "brewpub", "region": "Illinois", "longitude": -87.852676, "updateDate": "2014-07-23 19:11:34", "country": {"displayName": "United States", "name": "UNITED STATES", "isoThree": "USA", "createDate": "2012-01-03 02:41:33", "numberCode": 840, "isoCode": "US"}}, {"status": "verified", "openToPublic": "Y", "isPrimary": "N", "hoursOfOperation": "Mon - Thur:  11am - 1am\r\nFri:  11am - 2am\r\nSat:  11:30am - 2am\r\nSun:  11:30am - Midnight", "locationTypeDisplay": "Brewpub", "inPlanning": "N", "locality": "Warrenville", "createDate": "2012-10-04 14:35:19", "id": "lzuP4P", "streetAddress": "28256 Diehl Road", "postalCode": "60555", "website": "http://www.rockbottom.com/warrenville", "statusDisplay": "Verified", "countryIsoCode": "US", "phone": "630.836.1380", "isClosed": "N", "name": "Warrenville", "latitude": 41.802305, "locationType": "brewpub", "region": "Illinois", "longitude": -88.172225, "updateDate": "2014-07-23 19:11:34", "country": {"displayName": "United States", "name": "UNITED STATES", "isoThree": "USA", "createDate": "2012-01-03 02:41:33", "numberCode": 840, "isoCode": "US"}}, {"status": "verified", "openToPublic": "Y", "isPrimary": "N", "hoursOfOperation": "Sun - Thurs:  11:30am - Midnight\r\nFri - Sat:  11:30am - 1am", "locationTypeDisplay": "Brewpub", "inPlanning": "N", "locality": "Boston", "createDate": "2012-10-04 14:37:12", "id": "OJdDDq", "streetAddress": "115 Stuart Street", "postalCode": "02116", "website": "http://www.rockbottom.com/boston", "statusDisplay": "Verified", "countryIsoCode": "US", "phone": "617.742.2739", "isClosed": "N", "name": "Boston", "latitude": 42.351068, "locationType": "brewpub", "region": "Massachusetts", "longitude": -71.065359, "updateDate": "2014-07-23 19:11:34", "country": {"displayName": "United States", "name": "UNITED STATES", "isoThree": "USA", "createDate": "2012-01-03 02:41:33", "numberCode": 840, "isoCode": "US"}}, {"openToPublic": "Y", "isPrimary": "N", "hoursOfOperation": "Mon - Sun: 7am - 9pm", "locationTypeDisplay": "Brewpub", "inPlanning": "N", "locality": "St. Paul", "createDate": "2012-10-04 14:39:08", "id": "0dM1NH", "streetAddress": "4300 Glumack Drive LT 3302", "postalCode": "55111", "extendedAddress": "Terminal 1", "status": "verified", "statusDisplay": "Verified", "countryIsoCode": "US", "phone": "612.355.4646", "isClosed": "N", "name": "Minneapolis-St. Paul International Airport", "latitude": 44.886918, "locationType": "brewpub", "region": "Minnesota", "longitude": -93.201273, "updateDate": "2014-07-23 19:11:34", "country": {"displayName": "United States", "name": "UNITED STATES", "isoThree": "USA", "createDate": "2012-01-03 02:41:33", "numberCode": 840, "isoCode": "US"}}, {"status": "verified", "openToPublic": "Y", "isPrimary": "N", "hoursOfOperation": "Mon - Fri:  3pm - 6pm\r\nSun - Thurs:  9pm - Close\r\nFri - Sat:  10pm - Close", "locationTypeDisplay": "Brewpub", "inPlanning": "N", "locality": "Omaha", "createDate": "2012-10-04 14:40:52", "id": "cx4pWi", "streetAddress": "1101 Harney St.", "postalCode": "68102", "website": "http://www.rockbottom.com/omaha-gold-medal-tap", "statusDisplay": "Verified", "countryIsoCode": "US", "phone": "402.614.9333", "isClosed": "N", "name": "Omaha", "latitude": 41.256512, "locationType": "brewpub", "region": "Nebraska", "longitude": -95.930679, "updateDate": "2014-07-23 19:11:34", "country": {"displayName": "United States", "name": "UNITED STATES", "isoThree": "USA", "createDate": "2012-01-03 02:41:33", "numberCode": 840, "isoCode": "US"}}, {"status": "verified", "openToPublic": "Y", "isPrimary": "N", "hoursOfOperation": "Sun - Wed:  11am - Midnight\r\nThurs - Sat:  11am - 1am", "locationTypeDisplay": "Brewpub", "inPlanning": "N", "locality": "King of Prussia", "createDate": "2012-10-04 14:42:29", "id": "FGndg9", "streetAddress": "1001 King of Prussia Plaza", "postalCode": "19406", "website": "http://www.rockbottom.com/king-of-prussia", "statusDisplay": "Verified", "countryIsoCode": "US", "phone": "610.230.2739", "isClosed": "N", "name": "King of Prussia", "latitude": 40.087349, "locationType": "brewpub", "region": "Pennsylvania", "longitude": -75.389359, "updateDate": "2014-07-23 19:11:34", "country": {"displayName": "United States", "name": "UNITED STATES", "isoThree": "USA", "createDate": "2012-01-03 02:41:33", "numberCode": 840, "isoCode": "US"}}, {"status": "verified", "openToPublic": "Y", "isPrimary": "N", "hoursOfOperation": "Mon - Sat:  11am - 2am\r\nSun:  11am - Midnight", "locationTypeDisplay": "Brewpub", "inPlanning": "N", "locality": "Homestead", "createDate": "2012-10-04 14:44:06", "id": "raWRpa", "streetAddress": "171 Bridge Street", "postalCode": "15120", "website": "http://www.rockbottom.com/pittsburgh", "statusDisplay": "Verified", "countryIsoCode": "US", "phone": "412.462.2739", "isClosed": "N", "name": "PIttsburgh", "latitude": 40.409325, "locationType": "brewpub", "region": "Pennsylvania", "longitude": -79.914842, "updateDate": "2014-07-23 19:11:34", "country": {"displayName": "United States", "name": "UNITED STATES", "isoThree": "USA", "createDate": "2012-01-03 02:41:33", "numberCode": 840, "isoCode": "US"}}, {"status": "verified", "openToPublic": "Y", "isPrimary": "N", "hoursOfOperation": "Sun - Thur:  11am - 1am\r\nFri - Sat:  11am - 2am", "locationTypeDisplay": "Brewpub", "inPlanning": "N", "locality": "Arlington", "createDate": "2012-10-04 14:45:29", "id": "TuFFz1", "streetAddress": "4238 Wilson Boulevard", "postalCode": "22203", "extendedAddress": "Suite 1256", "website": "http://www.rockbottom.com/arlington", "statusDisplay": "Verified", "countryIsoCode": "US", "phone": "703.516.7688", "isClosed": "N", "name": "Arlington", "latitude": 38.880012, "locationType": "brewpub", "region": "Virginia", "longitude": -77.111303, "updateDate": "2014-07-23 19:11:34", "country": {"displayName": "United States", "name": "UNITED STATES", "isoThree": "USA", "createDate": "2012-01-03 02:41:33", "numberCode": 840, "isoCode": "US"}}, {"status": "verified", "openToPublic": "Y", "isPrimary": "N", "hoursOfOperation": "Mon - Thurs:  11am - midnight\r\nFri:  11am - 1am\r\nSat:  11:30am - 1am\r\nSun:  11:30am - midnight", "locationTypeDisplay": "Brewpub", "inPlanning": "N", "locality": "Bellevue", "createDate": "2012-10-04 14:46:58", "id": "6Dy48S", "streetAddress": "550 106th Avenue NE", "postalCode": "98004", "extendedAddress": "Suite 103", "website": "http://www.rockbottom.com/bellevue", "statusDisplay": "Verified", "countryIsoCode": "US", "phone": "425.462.9300", "isClosed": "N", "name": "Bellevue", "latitude": 47.615039, "locationType": "brewpub", "region": "Washington", "longitude": -122.198919, "updateDate": "2014-07-23 19:11:34", "country": {"displayName": "United States", "name": "UNITED STATES", "isoThree": "USA", "createDate": "2012-01-03 02:41:33", "numberCode": 840, "isoCode": "US"}}, {"status": "verified", "openToPublic": "Y", "isPrimary": "N", "hoursOfOperation": "Mon - Thurs:  11am - 11pm\r\nFri - Sat:  11am - 1am\r\nSun:  11am - 11:30pm", "locationTypeDisplay": "Brewpub", "inPlanning": "N", "locality": "Seattle", "createDate": "2012-10-04 14:48:04", "id": "iXgsHt", "streetAddress": "1333 Fifth Avenue", "postalCode": "98101", "website": "http://www.rockbottom.com/seattle", "statusDisplay": "Verified", "countryIsoCode": "US", "phone": "206.623.3070", "isClosed": "N", "name": "Seattle", "latitude": 47.608962, "locationType": "brewpub", "region": "Washington", "longitude": -122.334067, "updateDate": "2014-07-23 19:11:34", "country": {"displayName": "United States", "name": "UNITED STATES", "isoThree": "USA", "createDate": "2012-01-03 02:41:33", "numberCode": 840, "isoCode": "US"}}], "status": "verified", "updateDate": "2014-07-11 23:27:13", "images": {"large": "https://s3.amazonaws.com/brewerydbapi/brewery/D1UQzj/upload_DpHpjM-large.png", "medium": "https://s3.amazonaws.com/brewerydbapi/brewery/D1UQzj/upload_DpHpjM-medium.png", "icon": "https://s3.amazonaws.com/brewerydbapi/brewery/D1UQzj/upload_DpHpjM-icon.png"}, "id": "D1UQzj", "name": "Rock Bottom Restaurant & Brewery"}], "updateDate": "2012-03-22 13:04:40", "id": "NtOWyK", "name": "Pilsner"}, {"status": "verified", "isOrganic": "N", "statusDisplay": "Verified", "createDate": "2012-01-03 02:43:57", "breweries": [{"website": "http://www.mahrs.de/", "status": "verified", "isOrganic": "N", "name": "Bamberger Mahr's-Bru", "createDate": "2012-01-03 02:41:45", "locations": [{"inPlanning": "N", "countryIsoCode": "DE", "name": "Main Brewery", "locality": "Bamberg", "openToPublic": "Y", "locationType": "micro", "region": "Bayern", "longitude": 10.90668, "isClosed": "N", "phone": "49-(0)951-/-91517-0", "streetAddress": "Wunderburg 10", "createDate": "2012-01-03 02:41:45", "status": "verified", "updateDate": "2014-07-23 19:11:34", "country": {"displayName": "Germany", "name": "GERMANY", "isoThree": "DEU", "createDate": "2012-01-03 02:41:33", "numberCode": 276, "isoCode": "DE"}, "latitude": 49.8901, "isPrimary": "Y", "id": "GZucCF", "locationTypeDisplay": "Micro Brewery", "statusDisplay": "Verified"}], "updateDate": "2014-08-28 11:24:01", "images": {"large": "https://s3.amazonaws.com/brewerydbapi/brewery/GGaceU/upload_FYtC1P-large.png", "medium": "https://s3.amazonaws.com/brewerydbapi/brewery/GGaceU/upload_FYtC1P-medium.png", "icon": "https://s3.amazonaws.com/brewerydbapi/brewery/GGaceU/upload_FYtC1P-icon.png"}, "id": "GGaceU", "statusDisplay": "Verified"}], "updateDate": "2012-03-22 13:04:33", "abv": "4.9", "id": "E3f430", "name": "Pilsner"}, {"status": "verified", "available": {"description": "Available year round as a staple beer.", "id": 1, "name": "Year Round"}, "isOrganic": "N", "description": "Light with mild Hops, light and smooth", "statusDisplay": "Verified", "createDate": "2014-04-18 11:59:16", "breweries": [{"website": "http://merryfamilywinery.net/", "status": "verified", "isOrganic": "N", "description": "Small Batch Handcrafted Beer", "statusDisplay": "Verified", "createDate": "2014-04-18 11:56:34", "locations": [{"status": "verified", "openToPublic": "Y", "isPrimary": "Y", "hoursOfOperation": "Tues- Sat 12 pm - 8 pm", "locationTypeDisplay": "Micro Brewery", "inPlanning": "N", "locality": "Bidwell", "createDate": "2014-04-18 11:57:30", "id": "YO9d46", "streetAddress": "2376 State Route 850", "postalCode": "45614", "website": "http://merryfamilywinery.net/", "statusDisplay": "Verified", "countryIsoCode": "US", "phone": "(740) 245-9463", "isClosed": "N", "name": "Main Brewery", "latitude": 38.8655908, "locationType": "micro", "region": "Ohio", "longitude": -82.2995586, "updateDate": "2014-07-23 19:11:34", "country": {"displayName": "United States", "name": "UNITED STATES", "isoThree": "USA", "createDate": "2012-01-03 02:41:33", "numberCode": 840, "isoCode": "US"}}], "updateDate": "2014-04-18 11:56:35", "images": {"large": "https://s3.amazonaws.com/brewerydbapi/brewery/AtnxIp/upload_R6xfmA-large.png", "medium": "https://s3.amazonaws.com/brewerydbapi/brewery/AtnxIp/upload_R6xfmA-medium.png", "icon": "https://s3.amazonaws.com/brewerydbapi/brewery/AtnxIp/upload_R6xfmA-icon.png"}, "id": "AtnxIp", "name": "Old Mill Craft Beer"}], "style": {"category": {"createDate": "2012-03-21 20:06:46", "id": 8, "name": "North American Lager"}, "ogMin": "1.045", "description": "This classic and unique pre-Prohibition American-style Pilsener is straw to deep gold in color. Hop bitterness, flavor and aroma are medium to high, and use of noble-type hops for flavor and aroma is preferred. Up to 25 percent corn and/or rice in the grist should be used. Malt flavor and aroma are medium. This is a light-medium to medium-bodied beer. Sweet corn-like dimethylsulfide (DMS), fruity esters and American hop-derived citrus flavors or aromas should not be perceived. Diacetyl is not acceptable. There should be no chill haze. Competition organizers may wish to subcategorize this style into rice and corn subcategories.", "createDate": "2012-03-21 20:06:46", "ibuMin": "25", "categoryId": 8, "srmMax": "6", "ibuMax": "40", "abvMin": "5", "fgMin": "1.012", "fgMax": "1.018", "abvMax": "6", "id": 98, "srmMin": "3", "name": "American-Style Pilsener"}, "name": "Pilsner", "glass": {"createDate": "2012-01-03 02:41:33", "id": 4, "name": "Pilsner"}, "updateDate": "2014-10-09 17:30:26", "abv": "4.5", "styleId": 98, "availableId": 1, "id": "gJIfjf", "glasswareId": 4}, {"status": "verified", "available": {"description": "Available year round as a staple beer.", "id": 1, "name": "Year Round"}, "isOrganic": "N", "name": "Pilsner", "statusDisplay": "Verified", "createDate": "2013-01-09 12:27:59", "breweries": [{"website": "http://www.kelsobeer.com/", "established": "2006", "isOrganic": "N", "description": "Brewing extraordinary lagers which highlight the simple beauty of well crafted, local beers since 2006.", "statusDisplay": "Verified", "createDate": "2012-01-03 02:41:59", "locations": [{"status": "verified", "openToPublic": "Y", "isPrimary": "Y", "id": "ANqPO1", "locationTypeDisplay": "Micro Brewery", "inPlanning": "N", "locality": "Brooklyn", "createDate": "2012-01-03 02:41:59", "streetAddress": "529 Waverly Avenue", "postalCode": "11778", "website": "http://kelsoofbrooklyn.com/", "statusDisplay": "Verified", "yearOpened": "2006", "countryIsoCode": "US", "phone": "718-398-2731", "isClosed": "N", "name": "Main Brewery", "latitude": 40.6823455, "locationType": "micro", "region": "New York", "longitude": -73.9655843, "updateDate": "2014-07-23 19:11:34", "country": {"displayName": "United States", "name": "UNITED STATES", "isoThree": "USA", "createDate": "2012-01-03 02:41:33", "numberCode": 840, "isoCode": "US"}}], "status": "verified", "updateDate": "2013-01-09 12:27:09", "images": {"large": "https://s3.amazonaws.com/brewerydbapi/brewery/gj68bh/upload_dcQZHw-large.png", "medium": "https://s3.amazonaws.com/brewerydbapi/brewery/gj68bh/upload_dcQZHw-medium.png", "icon": "https://s3.amazonaws.com/brewerydbapi/brewery/gj68bh/upload_dcQZHw-icon.png"}, "id": "gj68bh", "name": "KelSo Beer Company"}], "style": {"category": {"createDate": "2012-03-21 20:06:46", "id": 8, "name": "North American Lager"}, "ogMin": "1.045", "description": "This classic and unique pre-Prohibition American-style Pilsener is straw to deep gold in color. Hop bitterness, flavor and aroma are medium to high, and use of noble-type hops for flavor and aroma is preferred. Up to 25 percent corn and/or rice in the grist should be used. Malt flavor and aroma are medium. This is a light-medium to medium-bodied beer. Sweet corn-like dimethylsulfide (DMS), fruity esters and American hop-derived citrus flavors or aromas should not be perceived. Diacetyl is not acceptable. There should be no chill haze. Competition organizers may wish to subcategorize this style into rice and corn subcategories.", "createDate": "2012-03-21 20:06:46", "ibuMin": "25", "categoryId": 8, "srmMax": "6", "ibuMax": "40", "abvMin": "5", "fgMin": "1.012", "fgMax": "1.018", "abvMax": "6", "id": 98, "srmMin": "3", "name": "American-Style Pilsener"}, "glass": {"createDate": "2012-01-03 02:41:33", "id": 4, "name": "Pilsner"}, "updateDate": "2013-01-09 12:27:59", "styleId": 98, "availableId": 1, "id": "eVfVYt", "glasswareId": 4}, {"status": "verified", "available": {"description": "Limited availability.", "id": 2, "name": "Limited"}, "isOrganic": "N", "description": "Our gold lager is brewed in true European style using only the finest imported Czech Saaz hops and lagered for a minimum of 30 days.", "statusDisplay": "Verified", "createDate": "2012-04-17 18:34:16", "breweries": [{"website": "http://www.broadripplebrewpub.com/", "established": "1990", "isOrganic": "N", "description": "The Broad Ripple Brewpub, established in 1990, was the first Brewpub in Indiana and is the oldest microbrewery currently operating in the state.  Our beers have won many awards over the years and we've been named Best Brewpub by both the restaurant reviewers and readers of every local publication dozens of times, making us the most decorated Brewpub, and one of the most well loved restaurants in the city of Indianapolis.", "statusDisplay": "Verified", "createDate": "2012-01-03 02:41:48", "locations": [{"openToPublic": "Y", "isPrimary": "Y", "hoursOfOperation": "Mon - Thu:\t 11:00 am - 12:00 am\r\nFri - Sat: 11:00 am - 1:00 am\r\nSun: 12:00 pm - 10:00 pm", "locationTypeDisplay": "Brewpub", "inPlanning": "N", "locality": "Indianapolis", "createDate": "2012-01-03 02:41:48", "id": "gK3HOe", "streetAddress": "842 East 65th Street", "postalCode": "46220", "status": "verified", "statusDisplay": "Verified", "countryIsoCode": "US", "phone": "1-317-253-2739", "isClosed": "N", "name": "Main Brewery", "latitude": 39.8734818, "locationType": "brewpub", "region": "Indiana", "longitude": -86.1428408, "updateDate": "2014-07-23 19:11:34", "country": {"displayName": "United States", "name": "UNITED STATES", "isoThree": "USA", "createDate": "2012-01-03 02:41:33", "numberCode": 840, "isoCode": "US"}}], "status": "verified", "updateDate": "2012-04-17 18:38:02", "images": {"large": "https://s3.amazonaws.com/brewerydbapi/brewery/S4ShGM/upload_2biEkX-large.png", "medium": "https://s3.amazonaws.com/brewerydbapi/brewery/S4ShGM/upload_2biEkX-medium.png", "icon": "https://s3.amazonaws.com/brewerydbapi/brewery/S4ShGM/upload_2biEkX-icon.png"}, "id": "S4ShGM", "name": "Broad Ripple Brewing"}], "style": {"category": {"createDate": "2012-03-21 20:06:46", "id": 7, "name": "European-germanic Lager"}, "ogMin": "1.044", "description": "A classic German Pilsener is very light straw or golden in color and well hopped. Perception of hop bitterness is medium to high. Noble-type hop aroma and flavor are moderate and quite obvious. It is a well-attenuated, medium-light bodied beer, but a malty residual sweetness can be perceived in aroma and flavor. Very low levels of sweet corn-like dimethylsulfide (DMS) character are below most beer drinkers' taste thresholds and are usually not detectable except to the trained or sensitive palate. Other fermentation or hop related sulfur compounds, when perceived at low levels, may be characteristic of this style. Fruity esters and diacetyl should not be perceived. There should be no chill haze. Its head should be dense and rich.", "createDate": "2012-03-21 20:06:46", "ibuMin": "25", "categoryId": 7, "srmMax": "4", "ibuMax": "40", "abvMin": "4", "fgMin": "1.006", "fgMax": "1.012", "abvMax": "5", "id": 75, "srmMin": "3", "name": "German-Style Pilsener"}, "name": "Pilsner", "glass": {"createDate": "2012-01-03 02:41:33", "id": 4, "name": "Pilsner"}, "updateDate": "2012-04-17 18:34:16", "abv": "5.2", "styleId": 75, "availableId": 2, "id": "O4aj5F", "glasswareId": 4}, {"status": "verified", "available": {"description": "Limited availability.", "id": 2, "name": "Limited"}, "isOrganic": "N", "description": "Czech-style pilsner. Soft yellow brown color.", "statusDisplay": "Verified", "createDate": "2012-04-17 18:57:10", "breweries": [{"website": "http://www.bruggebrasserie.com/", "established": "2005", "isOrganic": "N", "description": "Located in Indianapolis\u2019 Broad Ripple Neighborhood, Brugge Brasserie specializes in award-winning handcrafted ales and classic Belgian brasserie fair.\r\n\r\nThe landscape of Belgian beer includes a dizzying array of styles. Each of them offers the drinker something extremely special. Our selection of handcrafted beers looks to honor the Belgian tradition while keeping a firm grasp on our Indiana roots.", "statusDisplay": "Verified", "createDate": "2012-01-03 02:41:49", "locations": [{"status": "verified", "openToPublic": "Y", "isPrimary": "Y", "hoursOfOperation": "Mon \u2013 Sat: 11:00 am \u2013 10:30 pm\r\nSun: Noon \u2013 9:00 pm", "locationTypeDisplay": "Brewpub", "inPlanning": "N", "locality": "Indianapolis", "createDate": "2012-01-03 02:41:49", "id": "BE5WM0", "streetAddress": "1011 E Westfield Blvd", "postalCode": "46220", "website": "http://www.bruggebrasserie.com/", "statusDisplay": "Verified", "countryIsoCode": "US", "phone": "317-255-0978", "isClosed": "N", "name": "Main Brewery", "latitude": 39.870398, "locationType": "brewpub", "region": "Indiana", "longitude": -86.141217, "updateDate": "2014-07-23 19:11:34", "country": {"displayName": "United States", "name": "UNITED STATES", "isoThree": "USA", "createDate": "2012-01-03 02:41:33", "numberCode": 840, "isoCode": "US"}}], "status": "verified", "updateDate": "2014-09-10 20:24:19", "images": {"large": "https://s3.amazonaws.com/brewerydbapi/brewery/epUZXy/upload_D2B9wV-large.png", "medium": "https://s3.amazonaws.com/brewerydbapi/brewery/epUZXy/upload_D2B9wV-medium.png", "icon": "https://s3.amazonaws.com/brewerydbapi/brewery/epUZXy/upload_D2B9wV-icon.png"}, "id": "epUZXy", "name": "Brugge Brasserie"}], "style": {"category": {"createDate": "2012-03-21 20:06:46", "id": 7, "name": "European-germanic Lager"}, "ogMin": "1.044", "description": "Traditional Bohemian Pilseners are medium bodied, and they can be as dark as a light amber color. This style balances moderate bitterness and noble-type hop aroma and flavor with a malty, slightly sweet, medium body. Extremely low levels of diacetyl and low levels of sweet corn-like dimethylsulfide (DMS) character, if perceived, are characteristic of this style and both may accent malt aroma. A toasted-, biscuit-like, bready malt character along with low levels of sulfur compounds may be evident. There should be no chill haze. Its head should be dense and rich.", "createDate": "2012-03-21 20:06:46", "ibuMin": "30", "categoryId": 7, "srmMax": "7", "ibuMax": "45", "abvMin": "4", "fgMin": "1.014", "fgMax": "1.02", "abvMax": "5", "id": 76, "srmMin": "3", "name": "Bohemian-Style Pilsener"}, "name": "Pilsner", "glass": {"createDate": "2012-01-03 02:41:33", "id": 4, "name": "Pilsner"}, "updateDate": "2014-10-09 15:58:53", "abv": "4.6", "styleId": 76, "availableId": 2, "id": "KcNCIj", "glasswareId": 4}, {"status": "verified", "isOrganic": "N", "statusDisplay": "Verified", "createDate": "2012-01-03 02:43:57", "breweries": [{"website": "http://www.adamsnwbistro.com/", "established": "2011", "isOrganic": "N", "description": "Adam's Northwest Bistro & Brewery focuses on taking Northwest ingredients, and turning it into something good and comforting on your plate. We pride ourselves in making our dishes from scratch, from our slow cooked braises and hand formed burgers, to our hot soups and even our Bacon! Not only is our food from scratch but we brew our own hand-crafted beers next door also. Our goal is to provide you with service and atmosphere as if you were eating in our home.", "statusDisplay": "Verified", "createDate": "2012-01-03 02:42:11", "locations": [{"status": "verified", "openToPublic": "Y", "isPrimary": "Y", "hoursOfOperation": "Tue - Fri:\t11:30 am - 1:30 pm\r\n4:00 pm - 10:00 pm\r\nSat:\t4:00 pm - 10:00 pm\r\nSun:\t4:00 pm - 8:30 pm", "locationTypeDisplay": "Brewpub", "inPlanning": "N", "locality": "Monroe", "createDate": "2012-01-03 02:42:11", "id": "GNVJMF", "streetAddress": "104 North Lewis Street", "postalCode": "98272", "website": "http://www.adamsnwbistro.com/", "statusDisplay": "Verified", "yearOpened": "2011", "countryIsoCode": "US", "phone": "(360) 794-4056", "isClosed": "N", "name": "Adam's NW Bistro & Brewery", "latitude": 47.8563529, "locationType": "brewpub", "region": "Washington", "longitude": -121.9707751, "updateDate": "2014-07-23 19:11:34", "country": {"displayName": "United States", "name": "UNITED STATES", "isoThree": "USA", "createDate": "2012-01-03 02:41:33", "numberCode": 840, "isoCode": "US"}}], "status": "verified", "updateDate": "2012-10-24 12:11:19", "images": {"large": "https://s3.amazonaws.com/brewerydbapi/brewery/yGeLEO/upload_AyS7q6-large.png", "medium": "https://s3.amazonaws.com/brewerydbapi/brewery/yGeLEO/upload_AyS7q6-medium.png", "icon": "https://s3.amazonaws.com/brewerydbapi/brewery/yGeLEO/upload_AyS7q6-icon.png"}, "id": "yGeLEO", "name": "Twin Rivers Brewing"}], "updateDate": "2012-03-22 13:04:35", "abv": "4.7", "id": "nr8K3C", "name": "Pilsner"}, {"status": "verified", "available": {"description": "Beer is not available.", "id": 3, "name": "Not Available"}, "isOrganic": "N", "breweries": [{"website": "http://www.redhook.com/", "established": "1981", "isOrganic": "N", "description": "In 1981, Gordon Bowker and Paul Shipman started Redhook Ale Brewery in an old transmission shop in Seattle. Early missteps led to a cult following and eventually led to widespread acclaim that inspired countless craft brewers. Still, more than 25 years later, no brewery has been able to achieve the pure, unqualified Liquid Goodness of Redhook.", "statusDisplay": "Verified", "createDate": "2012-01-03 02:42:06", "locations": [{"status": "verified", "openToPublic": "Y", "isPrimary": "Y", "id": "4eAHNC", "locationTypeDisplay": "Brewpub", "inPlanning": "N", "locality": "Woodinville", "createDate": "2012-01-03 02:42:06", "streetAddress": "14300 Northeast 145th Street", "postalCode": "98072", "website": "http://www.redhook.com/", "statusDisplay": "Verified", "yearOpened": "1982", "countryIsoCode": "US", "phone": "425-483-3232", "isClosed": "N", "name": "Main Brewery", "latitude": 47.7348275, "locationType": "brewpub", "region": "Washington", "longitude": -122.1488713, "updateDate": "2014-07-23 19:11:34", "country": {"displayName": "United States", "name": "UNITED STATES", "isoThree": "USA", "createDate": "2012-01-03 02:41:33", "numberCode": 840, "isoCode": "US"}}, {"status": "verified", "openToPublic": "Y", "isPrimary": "N", "id": "mil2Zv", "locationTypeDisplay": "Brewpub", "inPlanning": "N", "locality": "Portsmouth", "createDate": "2012-01-03 02:42:15", "streetAddress": "1 Redhook Way", "postalCode": "03801", "extendedAddress": "Pease International Tradeport", "website": "http://www.redhook.com/", "statusDisplay": "Verified", "yearOpened": "1995", "countryIsoCode": "US", "phone": "603-430-8600", "isClosed": "N", "name": "Portsmouth", "latitude": 43.0717552, "locationType": "brewpub", "region": "New Hampshire", "longitude": -70.7625532, "updateDate": "2014-07-23 19:11:34", "country": {"displayName": "United States", "name": "UNITED STATES", "isoThree": "USA", "createDate": "2012-01-03 02:41:33", "numberCode": 840, "isoCode": "US"}}], "status": "verified", "updateDate": "2014-04-09 11:20:01", "images": {"large": "https://s3.amazonaws.com/brewerydbapi/brewery/YKa9wh/upload_igTi74-large.png", "medium": "https://s3.amazonaws.com/brewerydbapi/brewery/YKa9wh/upload_igTi74-medium.png", "icon": "https://s3.amazonaws.com/brewerydbapi/brewery/YKa9wh/upload_igTi74-icon.png"}, "id": "YKa9wh", "name": "Redhook Ale Brewery"}], "description": "Czech out Redhook\u2019s newest brew.  Redhook Pilsner is crisp, golden lager that is modeled after those historic beers originally made in Plze\u0148, Czechoslovakia.  Redhook Pilsner\u2019s maltiness is offset by a medium dose of Saaz hops and finishes with a clean, bright, thirst-quenching quality. A great \u201csession\u201d lager for when you\u2019ve got a long day ahead of drinking.", "name": "Pilsner", "glass": {"createDate": "2012-01-03 02:41:33", "id": 4, "name": "Pilsner"}, "createDate": "2012-03-20 01:49:12", "labels": {"large": "https://s3.amazonaws.com/brewerydbapi/beer/cr6Qdl/upload_9SN5jr-large.png", "medium": "https://s3.amazonaws.com/brewerydbapi/beer/cr6Qdl/upload_9SN5jr-medium.png", "icon": "https://s3.amazonaws.com/brewerydbapi/beer/cr6Qdl/upload_9SN5jr-icon.png"}, "style": {"category": {"createDate": "2012-03-21 20:06:46", "id": 7, "name": "European-germanic Lager"}, "ogMin": "1.044", "description": "Traditional Bohemian Pilseners are medium bodied, and they can be as dark as a light amber color. This style balances moderate bitterness and noble-type hop aroma and flavor with a malty, slightly sweet, medium body. Extremely low levels of diacetyl and low levels of sweet corn-like dimethylsulfide (DMS) character, if perceived, are characteristic of this style and both may accent malt aroma. A toasted-, biscuit-like, bready malt character along with low levels of sulfur compounds may be evident. There should be no chill haze. Its head should be dense and rich.", "createDate": "2012-03-21 20:06:46", "ibuMin": "30", "categoryId": 7, "srmMax": "7", "ibuMax": "45", "abvMin": "4", "fgMin": "1.014", "fgMax": "1.02", "abvMax": "5", "id": 76, "srmMin": "3", "name": "Bohemian-Style Pilsener"}, "id": "cr6Qdl", "statusDisplay": "Verified", "updateDate": "2014-01-04 22:43:02", "abv": "5.3", "styleId": 76, "availableId": 3, "ibu": "25", "glasswareId": 4}, {"status": "verified", "available": {"description": "Limited availability.", "id": 2, "name": "Limited"}, "isOrganic": "N", "description": "This Bohemian style Pilsner was brewed with 80% Pilsen malt as well as a touch of light caramel malts to give it a deep golden color. Plenty of Czech Saaz hops were added to the kettle for flavor and aroma as well as a pleasant bitterness to compliment the dry lager.", "statusDisplay": "Verified", "createDate": "2012-04-13 17:35:47", "breweries": [{"website": "http://www.cumberlandbrewery.com/", "status": "verified", "isOrganic": "N", "description": "Giving new meaning to the term microbrewery, Cumberland Brews may be one of the smallest eateries in town, with a half-dozen four-top tables and a short bar with nine stools making tight quarters of what used to be the White Mountain Creamery. (Techically, it's not a microbrewery but a brewpub - a restaurant that makes its own beer on the premises - but I'm not one to quibble in the face of a good pun.) It's usually packed, too, earning its crowds the old-fashioned way by providing very good food, friendly service, and the sine qua non for a brewpub: extremely high-quality hand-crafted artisan beers. Hand-crafted offerings are produced by Head Brewer Cameron Finnis.", "statusDisplay": "Verified", "createDate": "2012-01-03 02:41:52", "locations": [{"openToPublic": "Y", "isPrimary": "Y", "hoursOfOperation": "Mon - Thu:\t 4:00 pm - 2:00 am\r\nFri - Sat: 12:00 pm - 2:00 am\r\nSun: 1:00 pm - 2:00 am", "locationTypeDisplay": "Brewpub", "inPlanning": "N", "locality": "Louisville", "createDate": "2012-01-03 02:41:52", "id": "J4UYYJ", "streetAddress": "1576 Bardstown Rd", "postalCode": "40205", "status": "verified", "statusDisplay": "Verified", "countryIsoCode": "US", "phone": "(502) 458-8727", "isClosed": "N", "name": "Main Brewery", "latitude": 38.2309305, "locationType": "brewpub", "region": "Kentucky", "longitude": -85.7054514, "updateDate": "2014-07-23 19:11:34", "country": {"displayName": "United States", "name": "UNITED STATES", "isoThree": "USA", "createDate": "2012-01-03 02:41:33", "numberCode": 840, "isoCode": "US"}}], "updateDate": "2012-04-13 17:36:31", "images": {"large": "https://s3.amazonaws.com/brewerydbapi/brewery/oEzMDm/upload_5233zZ-large.png", "medium": "https://s3.amazonaws.com/brewerydbapi/brewery/oEzMDm/upload_5233zZ-medium.png", "icon": "https://s3.amazonaws.com/brewerydbapi/brewery/oEzMDm/upload_5233zZ-icon.png"}, "id": "oEzMDm", "name": "Cumberland Brewery"}], "style": {"category": {"createDate": "2012-03-21 20:06:46", "id": 7, "name": "European-germanic Lager"}, "ogMin": "1.044", "description": "Traditional Bohemian Pilseners are medium bodied, and they can be as dark as a light amber color. This style balances moderate bitterness and noble-type hop aroma and flavor with a malty, slightly sweet, medium body. Extremely low levels of diacetyl and low levels of sweet corn-like dimethylsulfide (DMS) character, if perceived, are characteristic of this style and both may accent malt aroma. A toasted-, biscuit-like, bready malt character along with low levels of sulfur compounds may be evident. There should be no chill haze. Its head should be dense and rich.", "createDate": "2012-03-21 20:06:46", "ibuMin": "30", "categoryId": 7, "srmMax": "7", "ibuMax": "45", "abvMin": "4", "fgMin": "1.014", "fgMax": "1.02", "abvMax": "5", "id": 76, "srmMin": "3", "name": "Bohemian-Style Pilsener"}, "name": "Pilsner", "glass": {"createDate": "2012-01-03 02:41:33", "id": 4, "name": "Pilsner"}, "updateDate": "2012-04-13 17:35:47", "styleId": 76, "availableId": 2, "id": "X01pAT", "glasswareId": 4}, {"status": "verified", "isOrganic": "N", "statusDisplay": "Verified", "createDate": "2012-08-12 12:20:53", "breweries": [{"website": "http://www.boehmisch-brauhaus.de/", "established": "1887", "isOrganic": "N", "name": "B\u00f6hmisch Brauhaus Gro\u00dfr\u00f6hrsdorf", "createDate": "2012-08-07 10:20:01", "locations": [{"inPlanning": "N", "countryIsoCode": "DE", "name": "Main Brewery", "locality": "Gro\u00dfr\u00f6hrsdorf", "openToPublic": "Y", "locationType": "micro", "region": "Saxony", "longitude": 14.02988, "isClosed": "N", "latitude": 51.14508, "streetAddress": "Bahnhofstra\u00dfe 11", "createDate": "2012-08-12 14:46:28", "status": "verified", "updateDate": "2014-07-23 19:11:34", "country": {"displayName": "Germany", "name": "GERMANY", "isoThree": "DEU", "createDate": "2012-01-03 02:41:33", "numberCode": 276, "isoCode": "DE"}, "postalCode": "01900", "isPrimary": "N", "id": "6UQcqZ", "locationTypeDisplay": "Micro Brewery", "statusDisplay": "Verified"}], "status": "verified", "updateDate": "2012-08-13 11:45:34", "id": "hIOu6r", "statusDisplay": "Verified"}], "updateDate": "2012-08-17 18:30:20", "id": "3A44ac", "name": "Pilsner"}, {"status": "verified", "isOrganic": "N", "statusDisplay": "Verified", "createDate": "2012-01-03 02:43:58", "breweries": [{"status": "verified", "isOrganic": "N", "statusDisplay": "Verified", "createDate": "2012-01-03 02:42:00", "locations": [{"inPlanning": "N", "countryIsoCode": "US", "name": "Main Brewery", "locality": "La Jolla", "openToPublic": "Y", "locationType": "micro", "region": "California", "longitude": -117.2739626, "isClosed": "N", "phone": "1-858-456-6279", "streetAddress": "7536 Fay Avenue", "createDate": "2012-01-03 02:42:00", "status": "verified", "updateDate": "2014-07-23 19:11:34", "country": {"displayName": "United States", "name": "UNITED STATES", "isoThree": "USA", "createDate": "2012-01-03 02:41:33", "numberCode": 840, "isoCode": "US"}, "postalCode": "92037", "latitude": 32.8409186, "isPrimary": "Y", "id": "OW2W3q", "locationTypeDisplay": "Micro Brewery", "statusDisplay": "Verified"}], "updateDate": "2012-03-21 19:06:07", "id": "5RXxVX", "name": "La Jolla Brew House"}], "updateDate": "2012-03-22 13:04:39", "id": "GrYzwp", "name": "Pilsner"}, {"status": "verified", "isOrganic": "N", "statusDisplay": "Verified", "createDate": "2012-08-12 12:20:59", "breweries": [{"status": "verified", "established": "2001", "isOrganic": "N", "statusDisplay": "Verified", "createDate": "2012-08-07 10:20:02", "locations": [{"inPlanning": "N", "countryIsoCode": "DE", "name": "Main Brewery", "locality": "Braunfels", "openToPublic": "Y", "locationType": "micro", "region": "Sachsen", "longitude": 8.510667, "isClosed": "N", "latitude": 50.542843, "streetAddress": "Gebr\u00fcder-Wahl-Strasse 19", "createDate": "2012-08-12 14:46:53", "status": "verified", "updateDate": "2014-07-23 19:11:34", "country": {"displayName": "Germany", "name": "GERMANY", "isoThree": "DEU", "createDate": "2012-01-03 02:41:33", "numberCode": 276, "isoCode": "DE"}, "postalCode": "D-35619", "isPrimary": "N", "id": "RX3n5Q", "locationTypeDisplay": "Micro Brewery", "statusDisplay": "Verified"}], "updateDate": "2012-08-13 14:28:28", "id": "vvqWPj", "name": "Brauhaus Oberm\u00fchle"}], "updateDate": "2012-08-17 18:30:39", "id": "5ISaZH", "name": "Pilsner"}, {"status": "verified", "available": {"description": "Available year round as a staple beer.", "id": 1, "name": "Year Round"}, "isOrganic": "N", "breweries": [{"website": "http://www.legendbrewing.com/", "established": "1994", "isOrganic": "N", "description": "Legend Brewing Company is a commercial microbrewery providing true premium beers to many of the best pubs and restaurants in Richmond and other areas of Virginia since January, 1994. Our mission is to bring to our customers the finest and freshest brews as flavorful alternatives to mass-marketed mainstream products. We're one of the few craft breweries in this region producing both lagers and ales, which require different yeasts and maturation conditions. All Legend beers are unpasteurized and made from only two-row and specialty barley malt, hops, water and yeast.", "statusDisplay": "Verified", "createDate": "2012-01-03 02:42:00", "locations": [{"status": "verified", "openToPublic": "Y", "isPrimary": "Y", "hoursOfOperation": "Mon - Thu:\t11:30 am - 11:00 pm\r\nFri - Sat:\t11:30 am - 12:00 am\r\nSun:\t12:30 pm - 10:00 pm", "locationTypeDisplay": "Brewpub", "inPlanning": "N", "locality": "Richmond", "createDate": "2012-01-03 02:42:00", "id": "ujtlp3", "streetAddress": "321 West 7th Street", "postalCode": "23224", "website": "http://www.legendbrewing.com/", "statusDisplay": "Verified", "yearOpened": "1994", "countryIsoCode": "US", "phone": "804-232-3446", "isClosed": "N", "name": "Main Brewery", "latitude": 37.526596, "locationType": "brewpub", "region": "Virginia", "longitude": -77.442841, "updateDate": "2014-07-23 19:11:34", "country": {"displayName": "United States", "name": "UNITED STATES", "isoThree": "USA", "createDate": "2012-01-03 02:41:33", "numberCode": 840, "isoCode": "US"}}], "status": "verified", "updateDate": "2012-08-26 14:01:59", "images": {"large": "https://s3.amazonaws.com/brewerydbapi/brewery/BhfQBs/upload_oWmlMY-large.png", "medium": "https://s3.amazonaws.com/brewerydbapi/brewery/BhfQBs/upload_oWmlMY-medium.png", "icon": "https://s3.amazonaws.com/brewerydbapi/brewery/BhfQBs/upload_oWmlMY-icon.png"}, "id": "BhfQBs", "name": "Legend Brewing Company"}], "description": "Legend Bohemian-style Pilsner starts with a rich gold color and a firm malt background. A substantial body yields a dry and crisp finish. This beer exudes more aggressive flavors than our Lager. Expect a smooth mouthfeel and a complementing marriage of malts and a hop bite. Floral and spicy hop flavors are evident throughout.", "statusDisplay": "Verified", "createDate": "2012-09-01 23:19:28", "labels": {"large": "https://s3.amazonaws.com/brewerydbapi/beer/g9IIfD/upload_ANnLNV-large.png", "medium": "https://s3.amazonaws.com/brewerydbapi/beer/g9IIfD/upload_ANnLNV-medium.png", "icon": "https://s3.amazonaws.com/brewerydbapi/beer/g9IIfD/upload_ANnLNV-icon.png"}, "style": {"category": {"createDate": "2012-03-21 20:06:46", "id": 8, "name": "North American Lager"}, "ogMin": "1.045", "description": "This classic and unique pre-Prohibition American-style Pilsener is straw to deep gold in color. Hop bitterness, flavor and aroma are medium to high, and use of noble-type hops for flavor and aroma is preferred. Up to 25 percent corn and/or rice in the grist should be used. Malt flavor and aroma are medium. This is a light-medium to medium-bodied beer. Sweet corn-like dimethylsulfide (DMS), fruity esters and American hop-derived citrus flavors or aromas should not be perceived. Diacetyl is not acceptable. There should be no chill haze. Competition organizers may wish to subcategorize this style into rice and corn subcategories.", "createDate": "2012-03-21 20:06:46", "ibuMin": "25", "categoryId": 8, "srmMax": "6", "ibuMax": "40", "abvMin": "5", "fgMin": "1.012", "fgMax": "1.018", "abvMax": "6", "id": 98, "srmMin": "3", "name": "American-Style Pilsener"}, "name": "Pilsner", "glass": {"createDate": "2012-01-03 02:41:33", "id": 4, "name": "Pilsner"}, "updateDate": "2014-10-08 17:23:48", "abv": "6", "styleId": 98, "availableId": 1, "id": "g9IIfD", "glasswareId": 4}, {"status": "verified", "isOrganic": "N", "statusDisplay": "Verified", "createDate": "2012-08-12 12:03:03", "breweries": [{"website": "http://www.schlachthofbraeu.de/", "established": "1999", "isOrganic": "N", "name": "Schlachthof Br\u00e4u", "createDate": "2012-08-07 10:17:11", "locations": [{"inPlanning": "N", "countryIsoCode": "DE", "name": "Main Brewery", "locality": "N\u00fcrtingen", "openToPublic": "Y", "locationType": "micro", "createDate": "2012-08-16 15:02:28", "longitude": 9.306445, "isClosed": "N", "latitude": 48.605989, "streetAddress": "M\u00fchlstra\u00dfe 15", "status": "verified", "updateDate": "2014-07-23 19:11:34", "country": {"displayName": "Germany", "name": "GERMANY", "isoThree": "DEU", "createDate": "2012-01-03 02:41:33", "numberCode": 276, "isoCode": "DE"}, "postalCode": "72622", "isPrimary": "Y", "id": "NBjiVH", "locationTypeDisplay": "Micro Brewery", "statusDisplay": "Verified"}], "status": "verified", "updateDate": "2012-08-16 15:02:10", "id": "Lp3Grm", "statusDisplay": "Verified"}], "updateDate": "2012-08-17 17:10:22", "id": "lczeid", "name": "Pilsner"}, {"status": "verified", "isOrganic": "N", "description": "Czech style lager with light golden color from pale and Munich malts. Cold storage (lagering) for several weeks provides smoothness, subtle malt flavor, and imported Saaz hop distinction.", "name": "Pilsner", "glass": {"createDate": "2012-01-03 02:41:33", "id": 4, "name": "Pilsner"}, "createDate": "2012-01-03 02:43:58", "breweries": [{"website": "http://www.anacortesrockfish.com/", "established": "1994", "isOrganic": "N", "description": "Our brewers focus on high quality ingredients, a carefully controlled process and delicate handling to provide one of the best beers you will find in the industry. We operate a seven barrel brewery designed and installed by Sound Brewing Systems of Seattle with vessels fabricated by Ripley Stainless in British Columbia. Our brewery features a cold room specially designed for lagering to provide our beers with a traditional character and complexity.", "statusDisplay": "Verified", "createDate": "2012-01-03 02:41:44", "locations": [{"status": "verified", "openToPublic": "Y", "isPrimary": "Y", "id": "9M9Z5S", "locationTypeDisplay": "Micro Brewery", "inPlanning": "N", "locality": "Anacortes", "createDate": "2012-01-03 02:41:44", "streetAddress": "320 Commercial Avenue", "postalCode": "98221", "website": "http://www.anacortesrockfish.com/", "statusDisplay": "Verified", "yearOpened": "1994", "countryIsoCode": "US", "phone": "360-588-1720", "isClosed": "N", "name": "Main Brewery", "latitude": 48.51933, "locationType": "micro", "region": "Washington", "longitude": -122.6125703, "updateDate": "2014-07-23 19:11:34", "country": {"displayName": "United States", "name": "UNITED STATES", "isoThree": "USA", "createDate": "2012-01-03 02:41:33", "numberCode": 840, "isoCode": "US"}}], "status": "verified", "updateDate": "2012-03-21 19:06:03", "images": {"large": "https://s3.amazonaws.com/brewerydbapi/brewery/U5SjmY/upload_4nQQuX-large.png", "medium": "https://s3.amazonaws.com/brewerydbapi/brewery/U5SjmY/upload_4nQQuX-medium.png", "icon": "https://s3.amazonaws.com/brewerydbapi/brewery/U5SjmY/upload_4nQQuX-icon.png"}, "id": "U5SjmY", "name": "Anacortes Brewery"}], "style": {"category": {"createDate": "2012-03-21 20:06:46", "id": 7, "name": "European-germanic Lager"}, "ogMin": "1.044", "description": "Traditional Bohemian Pilseners are medium bodied, and they can be as dark as a light amber color. This style balances moderate bitterness and noble-type hop aroma and flavor with a malty, slightly sweet, medium body. Extremely low levels of diacetyl and low levels of sweet corn-like dimethylsulfide (DMS) character, if perceived, are characteristic of this style and both may accent malt aroma. A toasted-, biscuit-like, bready malt character along with low levels of sulfur compounds may be evident. There should be no chill haze. Its head should be dense and rich.", "createDate": "2012-03-21 20:06:46", "ibuMin": "30", "categoryId": 7, "srmMax": "7", "ibuMax": "45", "abvMin": "4", "fgMin": "1.014", "fgMax": "1.02", "abvMax": "5", "id": 76, "srmMin": "3", "name": "Bohemian-Style Pilsener"}, "id": "Mp4VNA", "statusDisplay": "Verified", "updateDate": "2012-03-22 13:05:10", "abv": "5", "styleId": 76, "ibu": "35", "glasswareId": 4}, {"status": "verified", "isOrganic": "N", "name": "Pilsner", "createDate": "2012-12-16 14:25:08", "breweries": [{"website": "http://www.minoh-beer.jp/", "established": "1997", "isOrganic": "N", "name": "Minoh Beer", "createDate": "2012-12-16 11:32:45", "locations": [{"website": "Http://www.minoh-beer.com", "inPlanning": "N", "name": "Main Brewery", "locality": "Osaka", "openToPublic": "Y", "locationType": "micro", "createDate": "2012-12-16 11:33:51", "countryIsoCode": "JP", "yearOpened": "1997", "isClosed": "N", "phone": "072-725-7234", "streetAddress": "\uff13\u4e01\u76ee-\uff11\uff19\u2212\uff11\uff11 Makiochi", "status": "verified", "updateDate": "2014-07-23 19:11:34", "country": {"displayName": "Japan", "name": "JAPAN", "isoThree": "JPN", "createDate": "2012-01-03 02:41:33", "numberCode": 392, "isoCode": "JP"}, "postalCode": "562-0004", "isPrimary": "Y", "id": "8z0ZCd", "locationTypeDisplay": "Micro Brewery", "statusDisplay": "Verified"}], "status": "verified", "updateDate": "2012-12-19 21:38:34", "images": {"large": "https://s3.amazonaws.com/brewerydbapi/brewery/MzoCPz/upload_bU2nTY-large.png", "medium": "https://s3.amazonaws.com/brewerydbapi/brewery/MzoCPz/upload_bU2nTY-medium.png", "icon": "https://s3.amazonaws.com/brewerydbapi/brewery/MzoCPz/upload_bU2nTY-icon.png"}, "id": "MzoCPz", "statusDisplay": "Verified"}], "style": {"category": {"createDate": "2012-03-21 20:06:46", "id": 7, "name": "European-germanic Lager"}, "ogMin": "1.044", "description": "A classic German Pilsener is very light straw or golden in color and well hopped. Perception of hop bitterness is medium to high. Noble-type hop aroma and flavor are moderate and quite obvious. It is a well-attenuated, medium-light bodied beer, but a malty residual sweetness can be perceived in aroma and flavor. Very low levels of sweet corn-like dimethylsulfide (DMS) character are below most beer drinkers' taste thresholds and are usually not detectable except to the trained or sensitive palate. Other fermentation or hop related sulfur compounds, when perceived at low levels, may be characteristic of this style. Fruity esters and diacetyl should not be perceived. There should be no chill haze. Its head should be dense and rich.", "createDate": "2012-03-21 20:06:46", "ibuMin": "25", "categoryId": 7, "srmMax": "4", "ibuMax": "40", "abvMin": "4", "fgMin": "1.006", "fgMax": "1.012", "abvMax": "5", "id": 75, "srmMin": "3", "name": "German-Style Pilsener"}, "updateDate": "2012-12-16 14:25:11", "abv": "5", "styleId": 75, "id": "45YGTB", "statusDisplay": "Verified"}, {"status": "verified", "available": {"description": "Available year round as a staple beer.", "id": 1, "name": "Year Round"}, "isOrganic": "N", "description": "Our pilsner is a traditional Northern German Style Pilsner. It has a fantastic malty aroma with a slight spice from the hops. The head is brilliant white and floats on the clean pale lager. The sparkling mouthfeel gives way to a soft malt sweetness that is followed by a long, dry, crisp finish. The balanced clean finish taunts the mouth to take another drink. Lagered for a minimum of 8-12 weeks to ensure smoothness and drinkability.\r\n\r\nAll ingredients for the beer are imported from Germany. Brewed in accordance to the German Beer Purity Law (Reinheitsgebot) of 1516.", "name": "Pilsner", "glass": {"createDate": "2012-01-03 02:41:33", "id": 3, "name": "Mug"}, "createDate": "2012-01-03 02:43:58", "breweries": [{"website": "http://www.baronbeer.com/", "established": "2003", "isOrganic": "N", "description": "Mike Baker and Jeff Smiley founded Baron Brewing in the beginning of 2003. A brewery has been in the works for sometime. Lots of discussions on what if we had a brewery were had, over lots of good German beer. The opportunity came for us to travel to Germany to really get involved with the German brewing process and ideology - as well as sample the best beer on earth. After that trip, the direction of the brewery was set. German beer had to be re-discovered by the population. After many discussions on opening a brewery and a trip to Germany, the dream became reality. We found an existing brewery to purchase - Lunar Brewing. After purchasing Lunar and getting approved for all the necessary licensing, Baron is ready to go. On June 14th, the world of Seattle will have the chance to finally taste and purchase Baron Beer. The first style of many to be released is our flagship beer - Munich Lager.That is all for the history. We are growing on a daily basis and plan to be around for quite some time.", "statusDisplay": "Verified", "createDate": "2012-01-03 02:41:45", "locations": [{"status": "verified", "openToPublic": "Y", "isPrimary": "Y", "id": "TtXDhG", "locationTypeDisplay": "Micro Brewery", "inPlanning": "N", "locality": "Seattle", "createDate": "2012-01-03 02:41:45", "streetAddress": "1605 S 93rd Building E", "postalCode": "98108", "extendedAddress": "Unit L", "website": "http://www.baronbeer.com/", "statusDisplay": "Verified", "yearOpened": "2003", "countryIsoCode": "US", "phone": "206.764.1213", "isClosed": "N", "name": "Main Brewery", "latitude": 47.520289, "locationType": "micro", "region": "Washington", "longitude": -122.3124918, "updateDate": "2014-07-23 19:11:34", "country": {"displayName": "United States", "name": "UNITED STATES", "isoThree": "USA", "createDate": "2012-01-03 02:41:33", "numberCode": 840, "isoCode": "US"}}], "status": "verified", "updateDate": "2012-03-21 19:06:03", "images": {"large": "https://s3.amazonaws.com/brewerydbapi/brewery/g5GKTi/upload_MXWIS5-large.png", "medium": "https://s3.amazonaws.com/brewerydbapi/brewery/g5GKTi/upload_MXWIS5-medium.png", "icon": "https://s3.amazonaws.com/brewerydbapi/brewery/g5GKTi/upload_MXWIS5-icon.png"}, "id": "g5GKTi", "name": "Baron Brewing Company"}], "style": {"category": {"createDate": "2012-03-21 20:06:46", "id": 7, "name": "European-germanic Lager"}, "ogMin": "1.044", "description": "A classic German Pilsener is very light straw or golden in color and well hopped. Perception of hop bitterness is medium to high. Noble-type hop aroma and flavor are moderate and quite obvious. It is a well-attenuated, medium-light bodied beer, but a malty residual sweetness can be perceived in aroma and flavor. Very low levels of sweet corn-like dimethylsulfide (DMS) character are below most beer drinkers' taste thresholds and are usually not detectable except to the trained or sensitive palate. Other fermentation or hop related sulfur compounds, when perceived at low levels, may be characteristic of this style. Fruity esters and diacetyl should not be perceived. There should be no chill haze. Its head should be dense and rich.", "createDate": "2012-03-21 20:06:46", "ibuMin": "25", "categoryId": 7, "srmMax": "4", "ibuMax": "40", "abvMin": "4", "fgMin": "1.006", "fgMax": "1.012", "abvMax": "5", "id": 75, "srmMin": "3", "name": "German-Style Pilsener"}, "id": "IZx5D1", "statusDisplay": "Verified", "updateDate": "2012-03-22 13:05:05", "abv": "4.7", "styleId": 75, "availableId": 1, "ibu": "28", "glasswareId": 3}, {"status": "verified", "isOrganic": "N", "statusDisplay": "Verified", "createDate": "2012-01-03 02:43:58", "breweries": [{"status": "verified", "isOrganic": "N", "statusDisplay": "Verified", "createDate": "2012-01-03 02:41:54", "locations": [{"inPlanning": "N", "countryIsoCode": "US", "name": "Main Brewery", "locality": "Red Oak", "openToPublic": "Y", "locationType": "micro", "region": "Iowa", "longitude": -95.232758, "isClosed": "N", "createDate": "2012-01-03 02:41:54", "status": "verified", "updateDate": "2014-07-23 19:11:34", "country": {"displayName": "United States", "name": "UNITED STATES", "isoThree": "USA", "createDate": "2012-01-03 02:41:33", "numberCode": 840, "isoCode": "US"}, "latitude": 41.00932, "isPrimary": "Y", "id": "bHYB6A", "locationTypeDisplay": "Micro Brewery", "statusDisplay": "Verified"}], "updateDate": "2012-03-21 19:06:06", "id": "zjXRHt", "name": "Firehouse Brewery & Restaurant"}], "updateDate": "2012-03-22 13:04:37", "id": "FQLVgV", "name": "Pilsner"}, {"status": "verified", "isOrganic": "N", "statusDisplay": "Verified", "createDate": "2012-01-03 02:43:58", "breweries": [{"website": "http://www.railhousebrewpub.com/", "status": "verified", "isOrganic": "N", "statusDisplay": "Verified", "createDate": "2012-01-03 02:42:06", "locations": [{"inPlanning": "N", "countryIsoCode": "US", "name": "Main Brewery", "locality": "Marinette", "openToPublic": "Y", "locationType": "micro", "region": "Wisconsin", "longitude": -87.654354, "isClosed": "N", "phone": "1-715-732-4646", "streetAddress": "2029 Old Peshtigo Road", "createDate": "2012-01-03 02:42:06", "status": "verified", "updateDate": "2014-07-23 19:11:34", "country": {"displayName": "United States", "name": "UNITED STATES", "isoThree": "USA", "createDate": "2012-01-03 02:41:33", "numberCode": 840, "isoCode": "US"}, "postalCode": "54143", "latitude": 45.085137, "isPrimary": "Y", "id": "ljvd70", "locationTypeDisplay": "Micro Brewery", "statusDisplay": "Verified"}], "updateDate": "2012-10-21 19:52:35", "id": "8VuS7T", "name": "Rail House Restaurant and Brewpub"}], "style": {"category": {"createDate": "2012-03-21 20:06:46", "id": 8, "name": "North American Lager"}, "ogMin": "1.044", "description": "This style has low malt (and adjunct) sweetness, is medium bodied, and should contain no or a low percentage (less than 25%) of adjuncts. Color may be light straw to golden. Alcohol content and bitterness may also be greater. Hop aroma and flavor is low or negligible. Light fruity esters are acceptable. Chill haze and diacetyl should be absent. Note: Some beers marketed as \"premium\" (based on price) may not fit this definition.", "createDate": "2012-03-21 20:06:46", "ibuMin": "6", "categoryId": 8, "srmMax": "6", "ibuMax": "15", "abvMin": "4.3", "fgMin": "1.01", "fgMax": "1.014", "abvMax": "5", "id": 97, "srmMin": "2", "name": "American-Style Premium Lager"}, "updateDate": "2012-03-22 13:04:50", "styleId": 97, "id": "u138JX", "name": "Pilsner (discontinued)"}, {"status": "verified", "available": {"description": "Available year round as a staple beer.", "id": 1, "name": "Year Round"}, "isOrganic": "N", "breweries": [{"website": "http://www.orlisonbrewing.com/", "status": "verified", "isOrganic": "N", "description": "Orlison Brewing Co. lives by the motto, \u201cBrew No Evil.\u201d People drink beer to live and to celebrate life \u2014 nobody wants a glass filled with bad deeds. Orlison Brewing Co.\u2019s clear lagers represent its good intentions. Its pure ingredients signify honesty toward life\u2019s finer moments. Its crisp beers symbolize passion and direction. Orlison\u2019s lagers are served cold, which embodies the company\u2019s coolness and poise, while the full-flavored taste of its beers illustrates a full, free spirit and goodwill toward fellow men. \r\n\r\nPlain and simple, Orlison brews beers that make people happy.\r\n\r\nOrlison Brewing Co. \u2014 Brew No Evil\u2122.", "statusDisplay": "Verified", "createDate": "2013-11-21 13:25:06", "locations": [{"status": "verified", "openToPublic": "Y", "isPrimary": "Y", "hoursOfOperation": "Mon - Fri: 3:30 pm - 5:50 pm", "locationTypeDisplay": "Micro Brewery", "inPlanning": "N", "locality": "Airway Heights", "createDate": "2013-11-21 13:26:00", "id": "70rxW5", "streetAddress": "12921 W. 17th Ave", "postalCode": "99001", "website": "http://www.orlisonbrewing.com/", "statusDisplay": "Verified", "countryIsoCode": "US", "phone": "(509) 244-2536", "isClosed": "N", "name": "Main Brewery", "latitude": 47.640053, "locationType": "micro", "region": "Washington", "longitude": -117.589934, "updateDate": "2014-07-23 19:11:34", "country": {"displayName": "United States", "name": "UNITED STATES", "isoThree": "USA", "createDate": "2012-01-03 02:41:33", "numberCode": 840, "isoCode": "US"}}], "updateDate": "2014-07-30 16:39:09", "images": {"large": "https://s3.amazonaws.com/brewerydbapi/brewery/Ut4fRw/upload_Wt4yT6-large.png", "medium": "https://s3.amazonaws.com/brewerydbapi/brewery/Ut4fRw/upload_Wt4yT6-medium.png", "icon": "https://s3.amazonaws.com/brewerydbapi/brewery/Ut4fRw/upload_Wt4yT6-icon.png"}, "id": "Ut4fRw", "name": "Orlison Brewing Company"}], "description": "Pilsner 37 is Orlison Brewing Co.\u2019s modern take on an Old World pilsner. This unique, perfectly balanced hybrid beer is brewed with dry roasted specialty malts to create a complex pilsner taste, while late-added citrusy hops round the flavor off in true Northwestern style.\r\n\r\nOrlison is proudly donating a portion of the sales from Pilsner 37 to Team Gleason, a charity dedicated to providing live-improving technology and services to those afflicted with ALS.", "name": "Pilsner 37", "glass": {"createDate": "2012-01-03 02:41:33", "id": 4, "name": "Pilsner"}, "createDate": "2014-02-09 15:01:41", "labels": {"large": "https://s3.amazonaws.com/brewerydbapi/beer/7Y02mk/upload_aeuK1P-large.png", "medium": "https://s3.amazonaws.com/brewerydbapi/beer/7Y02mk/upload_aeuK1P-medium.png", "icon": "https://s3.amazonaws.com/brewerydbapi/beer/7Y02mk/upload_aeuK1P-icon.png"}, "style": {"category": {"createDate": "2012-03-21 20:06:46", "id": 8, "name": "North American Lager"}, "ogMin": "1.045", "description": "This classic and unique pre-Prohibition American-style Pilsener is straw to deep gold in color. Hop bitterness, flavor and aroma are medium to high, and use of noble-type hops for flavor and aroma is preferred. Up to 25 percent corn and/or rice in the grist should be used. Malt flavor and aroma are medium. This is a light-medium to medium-bodied beer. Sweet corn-like dimethylsulfide (DMS), fruity esters and American hop-derived citrus flavors or aromas should not be perceived. Diacetyl is not acceptable. There should be no chill haze. Competition organizers may wish to subcategorize this style into rice and corn subcategories.", "createDate": "2012-03-21 20:06:46", "ibuMin": "25", "categoryId": 8, "srmMax": "6", "ibuMax": "40", "abvMin": "5", "fgMin": "1.012", "fgMax": "1.018", "abvMax": "6", "id": 98, "srmMin": "3", "name": "American-Style Pilsener"}, "id": "7Y02mk", "statusDisplay": "Verified", "updateDate": "2014-09-10 18:51:46", "abv": "6.6", "styleId": 98, "availableId": 1, "ibu": "61", "glasswareId": 4}, {"status": "verified", "isOrganic": "N", "statusDisplay": "Verified", "createDate": "2012-08-12 12:03:31", "breweries": [{"website": "http://www.stiftsscheuer.de/", "established": "2005", "isOrganic": "N", "name": "Gasthausbrauerei Stiftsscheuer", "createDate": "2012-08-07 10:17:15", "locations": [{"inPlanning": "N", "countryIsoCode": "DE", "name": "Main Brewpub", "locality": "Kirchheim - Teck", "openToPublic": "Y", "locationType": "brewpub", "region": "Baden-W\u00fcrttemberg", "longitude": 9.452244, "isClosed": "N", "latitude": 48.649021, "streetAddress": "Widerholtstrasse 6 - 8", "createDate": "2012-08-12 14:46:07", "status": "verified", "updateDate": "2014-07-23 19:11:34", "country": {"displayName": "Germany", "name": "GERMANY", "isoThree": "DEU", "createDate": "2012-01-03 02:41:33", "numberCode": 276, "isoCode": "DE"}, "postalCode": "73230", "isPrimary": "N", "id": "hzZvpC", "locationTypeDisplay": "Brewpub", "statusDisplay": "Verified"}], "status": "verified", "updateDate": "2012-08-13 11:23:09", "id": "IMpk5G", "statusDisplay": "Verified"}], "updateDate": "2012-08-17 17:11:04", "id": "NRSxF1", "name": "Pilsner Bier Rotblond"}, {"status": "verified", "available": {"description": "Available year round as a staple beer.", "id": 1, "name": "Year Round"}, "isOrganic": "N", "description": "This classic American Pilsner is a little bit darkerthan you\u2019re used to. Don\u2019t be fooled though,this still has a light, crisp,Pilsner taste.", "statusDisplay": "Verified", "createDate": "2012-08-24 11:37:17", "breweries": [{"website": "http://badbrewing.com/", "established": "2012", "isOrganic": "N", "description": "BAD Brewing Company is a small Microbrewery locatedin downtown Mason, MI that opened in the Summer of 2012. We will offer a wide selection of hand crafted beers. We will have at least five house beers on tap, with several more on a rotating basis. All of the beers are hand crafted on site by the owner, and new recipes are always in the works! BAD Brewing looks forward to serving Mason and the Greater Lansing area the finest hand crafted beers possible. Have a BAD day!", "statusDisplay": "Verified", "createDate": "2012-08-24 11:33:21", "locations": [{"status": "verified", "openToPublic": "Y", "isPrimary": "Y", "hoursOfOperation": "Wed:  3:00pm - 10:00pm\nThu:  3:00pm - 10:00pm\nFri:  12:00pm - 12:00am\nSat:  12:00pm - 12:00am\nSun:  12:00pm - 10:00pm\n\nWed - Thu: 3:00 pm - 10:00 pm\r\nFri - Sat:12:00 pm - 12:00 am\r\nSun:12:00 pm - 10:00 pm", "locationTypeDisplay": "Micro Brewery", "inPlanning": "N", "locality": "Mason,", "createDate": "2012-08-24 11:34:33", "id": "X38nDm", "streetAddress": "440 S Jefferson", "postalCode": "48854", "website": "http://www.badbrewing.com/", "statusDisplay": "Verified", "yearOpened": "2012", "countryIsoCode": "US", "phone": "(517) 676-7664", "isClosed": "N", "name": "Main Brewery", "latitude": 42.578607, "locationType": "micro", "region": "Michigan", "longitude": -84.443446, "updateDate": "2014-09-29 20:33:46", "country": {"displayName": "United States", "name": "UNITED STATES", "isoThree": "USA", "createDate": "2012-01-03 02:41:33", "numberCode": 840, "isoCode": "US"}}], "status": "verified", "updateDate": "2012-08-24 11:35:08", "images": {"large": "https://s3.amazonaws.com/brewerydbapi/brewery/x3k18I/upload_G82Z0z-large.png", "medium": "https://s3.amazonaws.com/brewerydbapi/brewery/x3k18I/upload_G82Z0z-medium.png", "icon": "https://s3.amazonaws.com/brewerydbapi/brewery/x3k18I/upload_G82Z0z-icon.png"}, "id": "x3k18I", "name": "BAD Brewing Company"}], "style": {"category": {"createDate": "2012-03-21 20:06:46", "id": 8, "name": "North American Lager"}, "ogMin": "1.045", "description": "This classic and unique pre-Prohibition American-style Pilsener is straw to deep gold in color. Hop bitterness, flavor and aroma are medium to high, and use of noble-type hops for flavor and aroma is preferred. Up to 25 percent corn and/or rice in the grist should be used. Malt flavor and aroma are medium. This is a light-medium to medium-bodied beer. Sweet corn-like dimethylsulfide (DMS), fruity esters and American hop-derived citrus flavors or aromas should not be perceived. Diacetyl is not acceptable. There should be no chill haze. Competition organizers may wish to subcategorize this style into rice and corn subcategories.", "createDate": "2012-03-21 20:06:46", "ibuMin": "25", "categoryId": 8, "srmMax": "6", "ibuMax": "40", "abvMin": "5", "fgMin": "1.012", "fgMax": "1.018", "abvMax": "6", "id": 98, "srmMin": "3", "name": "American-Style Pilsener"}, "name": "Pilsner Bier Rotblond", "glass": {"createDate": "2012-01-03 02:41:33", "id": 4, "name": "Pilsner"}, "updateDate": "2012-08-24 11:37:17", "abv": "5.5", "styleId": 98, "availableId": 1, "id": "yQsxpt", "glasswareId": 4}, {"status": "verified", "available": {"description": "Available year round as a staple beer.", "id": 1, "name": "Year Round"}, "isOrganic": "N", "breweries": [{"website": "http://www.laconstancia.com/", "status": "verified", "isOrganic": "N", "statusDisplay": "Verified", "createDate": "2012-01-03 02:41:58", "locations": [{"website": "http://www.laconstancia.com/", "inPlanning": "N", "name": "Main Brewery", "locality": "San Salvador", "openToPublic": "Y", "locationType": "micro", "createDate": "2012-01-03 02:41:58", "countryIsoCode": "SV", "longitude": -89.1823366, "isClosed": "N", "phone": "503-231-5444", "streetAddress": "Avenida Independencia No.526", "status": "verified", "updateDate": "2014-07-23 19:11:34", "country": {"displayName": "El Salvador", "name": "EL SALVADOR", "isoThree": "SLV", "createDate": "2012-01-03 02:41:33", "numberCode": 222, "isoCode": "SV"}, "latitude": 13.7000445, "isPrimary": "Y", "id": "J7LzNx", "locationTypeDisplay": "Micro Brewery", "statusDisplay": "Verified"}], "updateDate": "2012-07-04 01:19:55", "id": "CQW3hO", "name": "Industrias La Constancia ILC"}], "name": "Pilsner of El Salvador", "statusDisplay": "Verified", "createDate": "2012-01-03 02:43:58", "servingTemperatureDisplay": "Very Cold - (0-4C/32-39F)", "style": {"category": {"createDate": "2012-03-21 20:06:46", "id": 8, "name": "North American Lager"}, "ogMin": "1.045", "description": "This classic and unique pre-Prohibition American-style Pilsener is straw to deep gold in color. Hop bitterness, flavor and aroma are medium to high, and use of noble-type hops for flavor and aroma is preferred. Up to 25 percent corn and/or rice in the grist should be used. Malt flavor and aroma are medium. This is a light-medium to medium-bodied beer. Sweet corn-like dimethylsulfide (DMS), fruity esters and American hop-derived citrus flavors or aromas should not be perceived. Diacetyl is not acceptable. There should be no chill haze. Competition organizers may wish to subcategorize this style into rice and corn subcategories.", "createDate": "2012-03-21 20:06:46", "ibuMin": "25", "categoryId": 8, "srmMax": "6", "ibuMax": "40", "abvMin": "5", "fgMin": "1.012", "fgMax": "1.018", "abvMax": "6", "id": 98, "srmMin": "3", "name": "American-Style Pilsener"}, "servingTemperature": "very_cold", "glass": {"createDate": "2012-01-03 02:41:33", "id": 4, "name": "Pilsner"}, "updateDate": "2012-07-04 01:18:26", "abv": "4.6", "styleId": 98, "availableId": 1, "id": "mzDbI2", "glasswareId": 4}, {"status": "verified", "available": {"description": "Available year round as a staple beer.", "id": 1, "name": "Year Round"}, "isOrganic": "N", "description": "A Czech-style pilsner brewed with pilsen malt and Czech Saaz hops, to create a dry, crisp pilsner beer. Named after the town of Pilsen, from where this crisp, clean style originates.", "name": "Pilsner Plunge", "glass": {"createDate": "2012-01-03 02:41:33", "id": 4, "name": "Pilsner"}, "createDate": "2012-01-03 02:43:58", "breweries": [{"website": "http://www.howesound.com/", "established": "1996", "isOrganic": "N", "description": "Howe Sound Brewing is proud to provide premium quality, all natural, micro-brewed beers to British Columbia's Sea To Sky Corridor, from Vancouver to Whistler BC. All of our ales and lagers are handcrafted with no preservatives to deliver pure satisfaction.", "statusDisplay": "Verified", "createDate": "2012-01-03 02:41:58", "locations": [{"status": "verified", "openToPublic": "Y", "isPrimary": "Y", "id": "WwE6W1", "locationTypeDisplay": "Micro Brewery", "inPlanning": "N", "locality": "Squamish", "createDate": "2012-01-03 02:41:58", "streetAddress": "37801 Cleveland Ave.", "postalCode": "V8B 0A7", "website": "http://www.howesound.com/", "statusDisplay": "Verified", "yearOpened": "1996", "countryIsoCode": "CA", "phone": "800-919-ALES", "isClosed": "N", "name": "Main Brewery", "latitude": 49.695042, "locationType": "micro", "region": "British Columbia", "longitude": -123.1563613, "updateDate": "2014-07-23 19:11:34", "country": {"displayName": "Canada", "name": "CANADA", "isoThree": "CAN", "createDate": "2012-01-03 02:41:33", "numberCode": 124, "isoCode": "CA"}}], "status": "verified", "updateDate": "2012-11-01 18:19:17", "images": {"large": "https://s3.amazonaws.com/brewerydbapi/brewery/MOpp7e/upload_jdIw73-large.png", "medium": "https://s3.amazonaws.com/brewerydbapi/brewery/MOpp7e/upload_jdIw73-medium.png", "icon": "https://s3.amazonaws.com/brewerydbapi/brewery/MOpp7e/upload_jdIw73-icon.png"}, "id": "MOpp7e", "name": "Howe Sound Brewing Company"}], "style": {"category": {"createDate": "2012-03-21 20:06:46", "id": 7, "name": "European-germanic Lager"}, "ogMin": "1.044", "description": "Traditional Bohemian Pilseners are medium bodied, and they can be as dark as a light amber color. This style balances moderate bitterness and noble-type hop aroma and flavor with a malty, slightly sweet, medium body. Extremely low levels of diacetyl and low levels of sweet corn-like dimethylsulfide (DMS) character, if perceived, are characteristic of this style and both may accent malt aroma. A toasted-, biscuit-like, bready malt character along with low levels of sulfur compounds may be evident. There should be no chill haze. Its head should be dense and rich.", "createDate": "2012-03-21 20:06:46", "ibuMin": "30", "categoryId": 7, "srmMax": "7", "ibuMax": "45", "abvMin": "4", "fgMin": "1.014", "fgMax": "1.02", "abvMax": "5", "id": 76, "srmMin": "3", "name": "Bohemian-Style Pilsener"}, "ibu": "25", "statusDisplay": "Verified", "updateDate": "2012-03-22 13:05:40", "styleId": 76, "availableId": 1, "id": "kRWgsf", "glasswareId": 4}, {"status": "verified", "isOrganic": "N", "description": "A marzen style lager brewed in the tradition of a German Oktoberfest.  Brewed with German malts and noble hops it has a clear copper color and is medium bodied with hints of toasted and caramel malt.  Brewed in the spring of this year and allowed to lager over the summer Tractor Beer is excited to share this fabulous seasonal", "statusDisplay": "Verified", "createDate": "2014-09-19 15:57:48", "breweries": [{"website": "http://www.getplowed.com/", "established": "1999", "isOrganic": "N", "description": "Tractor Brewing Co. produces world class beers. Come see the brewery. Try the beers and enjoy delicious BBQ next door! Open 7 days a week\r\n\r\nHelping New Mexicans Get Plowed with Great Beer Since 1999.", "statusDisplay": "Verified", "createDate": "2012-01-03 02:42:10", "locations": [{"status": "verified", "openToPublic": "Y", "isPrimary": "Y", "hoursOfOperation": "MONDAY -THURSDAY 3:00PM \u2013 CLOSE\r\n\r\nFRIDAY-SUNDAY 1:00PM \u2013 CLOSE", "locationTypeDisplay": "Micro Brewery", "inPlanning": "N", "locality": "Albuquerque", "createDate": "2012-01-03 02:42:10", "id": "7pvFRb", "streetAddress": "1800 4TH St NW", "postalCode": "87102", "website": "http://www.getplowed.com/", "statusDisplay": "Verified", "yearOpened": "1999", "countryIsoCode": "US", "phone": "(505) 243-6752", "isClosed": "N", "name": "Wells Park", "latitude": 35.102217, "locationType": "micro", "region": "New Mexico", "longitude": -106.647701, "updateDate": "2014-07-23 19:11:34", "country": {"displayName": "United States", "name": "UNITED STATES", "isoThree": "USA", "createDate": "2012-01-03 02:41:33", "numberCode": 840, "isoCode": "US"}}, {"openToPublic": "Y", "isPrimary": "N", "id": "sb1T5g", "locationTypeDisplay": "Tasting Room", "inPlanning": "N", "locality": "Albuquerque", "createDate": "2012-08-18 03:28:06", "streetAddress": "118 Tulane SE", "postalCode": "87106", "status": "verified", "statusDisplay": "Verified", "yearOpened": "2011", "countryIsoCode": "US", "phone": "(505) 433-5654", "isClosed": "N", "name": "Nob Hill Tap Room", "latitude": 35.079808, "locationType": "tasting", "region": "New Mexico", "longitude": -106.607021, "updateDate": "2014-07-23 19:11:34", "country": {"displayName": "United States", "name": "UNITED STATES", "isoThree": "USA", "createDate": "2012-01-03 02:41:33", "numberCode": 840, "isoCode": "US"}}, {"status": "verified", "openToPublic": "Y", "isPrimary": "N", "id": "7kuQ44", "locationTypeDisplay": "Production Facility", "inPlanning": "N", "locality": "Los Lunas", "createDate": "2014-03-30 16:13:12", "streetAddress": "120 Nelson Lane", "postalCode": "87031", "website": "http://getplowed.com/", "statusDisplay": "Verified", "countryIsoCode": "US", "phone": "(505) 866-0000", "isClosed": "N", "name": "Brewing Location", "latitude": 34.8034407, "locationType": "production", "region": "New Mexico", "longitude": -106.7060584, "updateDate": "2014-07-23 19:11:34", "country": {"displayName": "United States", "name": "UNITED STATES", "isoThree": "USA", "createDate": "2012-01-03 02:41:33", "numberCode": 840, "isoCode": "US"}}], "status": "verified", "updateDate": "2014-09-19 17:34:11", "id": "kyDYlq", "name": "Tractor Brewing Company"}], "style": {"category": {"createDate": "2012-03-21 20:06:46", "id": 8, "name": "North American Lager"}, "ogMin": "1.042", "description": "American-style amber lagers are light amber to amber or copper colored. They are medium bodied. There is a noticeable degree of caramel-type malt character in flavor and often in aroma. This is a broad category in which the hop bitterness, flavor, and aroma may be accentuated or may only be present at relatively low levels, yet noticeable. Fruity esters, diacetyl, and chill haze should be absent.", "createDate": "2012-03-21 20:06:46", "ibuMin": "18", "categoryId": 8, "srmMax": "14", "ibuMax": "30", "abvMin": "4.8", "fgMin": "1.01", "fgMax": "1.018", "abvMax": "5.4", "id": 101, "srmMin": "6", "name": "American-Style Amber Lager"}, "id": "XAyU3j", "updateDate": "2014-09-21 14:14:20", "abv": "6.2", "styleId": 101, "ibu": "29", "name": "Pilsner Roja"}, {"status": "verified", "available": {"description": "Available year round as a staple beer.", "id": 1, "name": "Year Round"}, "isOrganic": "N", "breweries": [{"website": "http://www.pilsner-urquell.cz/", "status": "verified", "isOrganic": "N", "name": "Plze\u0148sk\u00fd Prazdroj", "createDate": "2012-01-03 02:42:06", "locations": [{"inPlanning": "N", "countryIsoCode": "CZ", "name": "Main Brewery", "locality": "Plze", "openToPublic": "Y", "locationType": "micro", "createDate": "2012-01-03 02:42:06", "longitude": 13.386083, "isClosed": "N", "phone": "420-019/706-1111", "streetAddress": "U Prazdroje 7", "status": "verified", "updateDate": "2014-07-23 19:11:34", "country": {"displayName": "Czech Republic", "name": "CZECH REPUBLIC", "isoThree": "CZE", "createDate": "2012-01-03 02:41:33", "numberCode": 203, "isoCode": "CZ"}, "latitude": 49.7466261, "isPrimary": "Y", "id": "OYtwtU", "locationTypeDisplay": "Micro Brewery", "statusDisplay": "Verified"}], "updateDate": "2012-07-19 22:59:05", "images": {"large": "https://s3.amazonaws.com/brewerydbapi/brewery/7hKwwf/upload_npHDCN-large.png", "medium": "https://s3.amazonaws.com/brewerydbapi/brewery/7hKwwf/upload_npHDCN-medium.png", "icon": "https://s3.amazonaws.com/brewerydbapi/brewery/7hKwwf/upload_npHDCN-icon.png"}, "id": "7hKwwf", "statusDisplay": "Verified"}], "name": "Pilsner Urquell", "statusDisplay": "Verified", "createDate": "2012-01-03 02:43:58", "labels": {"large": "https://s3.amazonaws.com/brewerydbapi/beer/LMfC4N/upload_6EjKxB-large.png", "medium": "https://s3.amazonaws.com/brewerydbapi/beer/LMfC4N/upload_6EjKxB-medium.png", "icon": "https://s3.amazonaws.com/brewerydbapi/beer/LMfC4N/upload_6EjKxB-icon.png"}, "style": {"category": {"createDate": "2012-03-21 20:06:46", "id": 7, "name": "European-germanic Lager"}, "ogMin": "1.044", "description": "Traditional Bohemian Pilseners are medium bodied, and they can be as dark as a light amber color. This style balances moderate bitterness and noble-type hop aroma and flavor with a malty, slightly sweet, medium body. Extremely low levels of diacetyl and low levels of sweet corn-like dimethylsulfide (DMS) character, if perceived, are characteristic of this style and both may accent malt aroma. A toasted-, biscuit-like, bready malt character along with low levels of sulfur compounds may be evident. There should be no chill haze. Its head should be dense and rich.", "createDate": "2012-03-21 20:06:46", "ibuMin": "30", "categoryId": 7, "srmMax": "7", "ibuMax": "45", "abvMin": "4", "fgMin": "1.014", "fgMax": "1.02", "abvMax": "5", "id": 76, "srmMin": "3", "name": "Bohemian-Style Pilsener"}, "glass": {"createDate": "2012-01-03 02:41:33", "id": 5, "name": "Pint"}, "updateDate": "2014-10-08 15:20:31", "abv": "4.4", "styleId": 76, "availableId": 1, "id": "LMfC4N", "glasswareId": 5}, {"status": "verified", "isOrganic": "N", "breweries": [{"website": "http://threebrosbrew.com/", "established": "2012", "isOrganic": "N", "description": "Three Brothers Brewing is a craft-brewery that is currently distributing local beer to western Virginia! Look for our tasting room to open in early 2013.\r\n\r\nAt Three Brothers Brewing,our mission is to brew and sell the best craft beer possible. As a family owned business, we focus on both the community that we live in and the community that we have created.\r\nWe're proud of our commitment to tap into local products and services to bring you what you are looking for... a truly unique, quality craft beer for our retailers and consumers.", "statusDisplay": "Verified", "createDate": "2013-02-23 14:39:19", "locations": [{"status": "verified", "openToPublic": "Y", "isPrimary": "Y", "hoursOfOperation": "Call", "locationTypeDisplay": "Micro Brewery", "inPlanning": "N", "locality": "Harrisonburg", "createDate": "2013-02-23 14:40:25", "id": "8n537L", "streetAddress": "800 North Main St.", "postalCode": "22802", "website": "http://threebrosbrew.com/", "statusDisplay": "Verified", "countryIsoCode": "US", "phone": "(540) 435-6008", "isClosed": "N", "name": "Main Brewery", "latitude": 38.4576217, "locationType": "micro", "region": "Virginia", "longitude": -78.861127, "updateDate": "2014-07-23 19:11:34", "country": {"displayName": "United States", "name": "UNITED STATES", "isoThree": "USA", "createDate": "2012-01-03 02:41:33", "numberCode": 840, "isoCode": "US"}}], "status": "verified", "updateDate": "2013-02-23 14:41:08", "images": {"large": "https://s3.amazonaws.com/brewerydbapi/brewery/R4fiI1/upload_gm1AwZ-large.png", "medium": "https://s3.amazonaws.com/brewerydbapi/brewery/R4fiI1/upload_gm1AwZ-medium.png", "icon": "https://s3.amazonaws.com/brewerydbapi/brewery/R4fiI1/upload_gm1AwZ-icon.png"}, "id": "R4fiI1", "name": "Three Brothers Brewing"}], "description": "Being A Nerd Is Nothing To Be Ashamed Of But Something To Celebrate! At Three Brothers, We\u2019re Beer Nerds That Appreciate Tradition Just As Much As We Love To Experiment. For Pilsnerd, We Opted For The Former, Honoring The German Pilsner\u2019s Tradition Of Subtle  Floral Depth And Bready Balance. A Crisp, Timeless Pour That\u2019s Sure To Satisfy Your Inner Nerd!", "statusDisplay": "Verified", "createDate": "2014-07-09 19:43:07", "labels": {"large": "https://s3.amazonaws.com/brewerydbapi/beer/US5NXR/upload_75OD0R-large.png", "medium": "https://s3.amazonaws.com/brewerydbapi/beer/US5NXR/upload_75OD0R-medium.png", "icon": "https://s3.amazonaws.com/brewerydbapi/beer/US5NXR/upload_75OD0R-icon.png"}, "style": {"category": {"createDate": "2012-03-21 20:06:46", "id": 7, "name": "European-germanic Lager"}, "ogMin": "1.044", "description": "A classic German Pilsener is very light straw or golden in color and well hopped. Perception of hop bitterness is medium to high. Noble-type hop aroma and flavor are moderate and quite obvious. It is a well-attenuated, medium-light bodied beer, but a malty residual sweetness can be perceived in aroma and flavor. Very low levels of sweet corn-like dimethylsulfide (DMS) character are below most beer drinkers' taste thresholds and are usually not detectable except to the trained or sensitive palate. Other fermentation or hop related sulfur compounds, when perceived at low levels, may be characteristic of this style. Fruity esters and diacetyl should not be perceived. There should be no chill haze. Its head should be dense and rich.", "createDate": "2012-03-21 20:06:46", "ibuMin": "25", "categoryId": 7, "srmMax": "4", "ibuMax": "40", "abvMin": "4", "fgMin": "1.006", "fgMax": "1.012", "abvMax": "5", "id": 75, "srmMin": "3", "name": "German-Style Pilsener"}, "id": "US5NXR", "updateDate": "2014-07-10 12:36:59", "abv": "4.6", "styleId": 75, "ibu": "26", "name": "Pilsnerd"}, {"status": "verified", "available": {"description": "Available year round as a staple beer.", "id": 1, "name": "Year Round"}, "isOrganic": "N", "breweries": [{"website": "http://www.liveoakbrewing.com/", "established": "1997", "isOrganic": "N", "description": "Live Oak Brewing Company is truly a home-grown Austin enterprise. Two of Austin's own homebrews, Chip McElroy and Brian Peters, literally hand-built the brewery and were the two main brewers, keg washers, delivery persons, and proselytizers. Live Oak has grown since then, but we are still just as passionate about providing delicious old-world style beers that are rarely commercially available. Our special beers are brewed in limited quantities in a small east Austin brewery and are available in fine pubs and restaurants in Austin, Dallas, Houston, Alpine, Marathon, San Marcos and San Antonio.", "statusDisplay": "Verified", "createDate": "2012-01-03 02:42:00", "locations": [{"status": "verified", "openToPublic": "Y", "isPrimary": "Y", "id": "AButIj", "locationTypeDisplay": "Micro Brewery", "inPlanning": "N", "locality": "Austin", "createDate": "2012-01-03 02:42:00", "streetAddress": "3301-B East 5th Street", "postalCode": "78702", "website": "http://www.liveoakbrewing.com/", "statusDisplay": "Verified", "yearOpened": "1997", "countryIsoCode": "US", "phone": "1-512-385-2299", "isClosed": "N", "name": "Main Brewery", "latitude": 30.254665, "locationType": "micro", "region": "Texas", "longitude": -97.70551, "updateDate": "2014-07-23 19:11:34", "country": {"displayName": "United States", "name": "UNITED STATES", "isoThree": "USA", "createDate": "2012-01-03 02:41:33", "numberCode": 840, "isoCode": "US"}}], "status": "verified", "updateDate": "2012-12-21 16:33:45", "images": {"large": "https://s3.amazonaws.com/brewerydbapi/brewery/ZX0hI5/upload_fDpcsV-large.png", "medium": "https://s3.amazonaws.com/brewerydbapi/brewery/ZX0hI5/upload_fDpcsV-medium.png", "icon": "https://s3.amazonaws.com/brewerydbapi/brewery/ZX0hI5/upload_fDpcsV-icon.png"}, "id": "ZX0hI5", "name": "Live Oak Brewing Company"}], "description": "Styled after the Bohemian classic, Pilz is a golden lager with a moderate hop bitterness and soft malt flavor. We employ an intensive decoction mash that contributes to the beer\u2019s full body and rich color. Cold fermentation and lengthy secondary conditioning produce a brilliant beer that highlights the flavor of the spicy Saaz hops. Perfection in a glass, Pilz is a simple beer done well.", "statusDisplay": "Verified", "createDate": "2012-01-03 02:43:37", "labels": {"large": "https://s3.amazonaws.com/brewerydbapi/beer/Dbz1XM/upload_gFWdqe-large.png", "medium": "https://s3.amazonaws.com/brewerydbapi/beer/Dbz1XM/upload_gFWdqe-medium.png", "icon": "https://s3.amazonaws.com/brewerydbapi/beer/Dbz1XM/upload_gFWdqe-icon.png"}, "style": {"category": {"createDate": "2012-03-21 20:06:46", "id": 7, "name": "European-germanic Lager"}, "ogMin": "1.044", "description": "Traditional Bohemian Pilseners are medium bodied, and they can be as dark as a light amber color. This style balances moderate bitterness and noble-type hop aroma and flavor with a malty, slightly sweet, medium body. Extremely low levels of diacetyl and low levels of sweet corn-like dimethylsulfide (DMS) character, if perceived, are characteristic of this style and both may accent malt aroma. A toasted-, biscuit-like, bready malt character along with low levels of sulfur compounds may be evident. There should be no chill haze. Its head should be dense and rich.", "createDate": "2012-03-21 20:06:46", "ibuMin": "30", "categoryId": 7, "srmMax": "7", "ibuMax": "45", "abvMin": "4", "fgMin": "1.014", "fgMax": "1.02", "abvMax": "5", "id": 76, "srmMin": "3", "name": "Bohemian-Style Pilsener"}, "name": "Pilz", "glass": {"createDate": "2012-01-03 02:41:33", "id": 4, "name": "Pilsner"}, "updateDate": "2014-09-10 19:08:42", "abv": "4.9", "styleId": 76, "availableId": 1, "id": "Dbz1XM", "glasswareId": 4}, {"status": "verified", "available": {"description": "Available year round as a staple beer.", "id": 1, "name": "Year Round"}, "isOrganic": "N", "breweries": [{"website": "http://www.voodoobrewery.com/", "status": "verified", "isOrganic": "N", "description": "Brewers of Artisan Beer Styles and is not a brewpub.", "statusDisplay": "Verified", "createDate": "2012-01-03 02:42:12", "locations": [{"status": "verified", "openToPublic": "Y", "isPrimary": "Y", "id": "8xokAA", "locationTypeDisplay": "Micro Brewery", "inPlanning": "N", "locality": "Meadville", "createDate": "2012-01-03 02:42:12", "streetAddress": "215 1/5 Arch St.", "postalCode": "16335", "website": "http://www.voodoobrewery.com/", "statusDisplay": "Verified", "countryIsoCode": "US", "phone": "412-468-0295", "isClosed": "N", "name": "Main Brewery", "latitude": 41.6372206, "locationType": "micro", "region": "Pennsylvania", "longitude": -80.1549035, "updateDate": "2014-07-23 19:11:34", "country": {"displayName": "United States", "name": "UNITED STATES", "isoThree": "USA", "createDate": "2012-01-03 02:41:33", "numberCode": 840, "isoCode": "US"}}], "updateDate": "2012-03-21 19:06:10", "images": {"large": "https://s3.amazonaws.com/brewerydbapi/brewery/z5DqPC/upload_BpDTJU-large.png", "medium": "https://s3.amazonaws.com/brewerydbapi/brewery/z5DqPC/upload_BpDTJU-medium.png", "icon": "https://s3.amazonaws.com/brewerydbapi/brewery/z5DqPC/upload_BpDTJU-icon.png"}, "id": "z5DqPC", "name": "Voodoo Brewing Company"}], "description": "Pilzilla is a beer that I've been brewing for years. Each year it gets bigger and bigger. Nicknamed \"The beer that took over Tokyo\". It is an unfiltered Keller Bier. Nicley hopped at this point with 9 different kinds of hops at 10 additions and about 6.75 % alc. Each year we will add another variety of hop and bump the alc a bit. This is listed on Beer Advocate as the highest rated Kellerbier in the world.\r\n\r\nBottle Conditioned and Refermented.\r\n\r\nThis is not your average pilsner, get it before we drink it all! Prost!!", "statusDisplay": "Verified", "createDate": "2012-01-03 02:43:58", "labels": {"large": "https://s3.amazonaws.com/brewerydbapi/beer/an0hks/upload_r8bOAj-large.png", "medium": "https://s3.amazonaws.com/brewerydbapi/beer/an0hks/upload_r8bOAj-medium.png", "icon": "https://s3.amazonaws.com/brewerydbapi/beer/an0hks/upload_r8bOAj-icon.png"}, "style": {"category": {"createDate": "2012-03-21 20:06:46", "id": 11, "name": "Hybrid/mixed Beer"}, "ogMin": "1.03", "description": "These beers are brewed using unusual fermentable sugars, grains and starches that contribute to alcohol content other than, or in addition to, malted barley. Nuts generally have some degree of fermentables, thus beers brewed with nuts would appropriately be entered in this category. The distinctive characters of these special ingredients should be evident either in the aroma, flavor or overall balance of the beer, but not necessarily in overpowering quantities. For example, maple syrup or potatoes would be considered unusual. Rice, corn, or wheat are not considered unusual. Special ingredients must be listed when competing. A statement by the brewer explaining the special nature of the beer, ingredient(s) and achieved character is essential in order for fair assessment in competitions. If this beer is a classic style with some specialty ingredient(s), the brewer should also specify the classic style. Guidelines for competing: Spiced beers using unusual fermentables should be entered in the experimental category. Fruit beers using unusual fermentables should be entered in the fruit beer category.", "createDate": "2012-03-21 20:06:46", "categoryId": 11, "srmMax": "100", "ibuMax": "100", "abvMin": "2.5", "fgMin": "1.006", "fgMax": "1.03", "abvMax": "25", "id": 125, "srmMin": "1", "name": "Specialty Beer"}, "name": "PILZILLA", "glass": {"createDate": "2012-01-03 02:41:33", "id": 5, "name": "Pint"}, "updateDate": "2013-11-12 01:58:21", "abv": "6.75", "styleId": 125, "availableId": 1, "id": "an0hks", "glasswareId": 5}, {"status": "verified", "isOrganic": "N", "breweries": [{"website": "http://www.bayhawkales.com/", "established": "1995", "isOrganic": "N", "description": "Bayhawk Ales, Orange County's largest microbrewery, began operation in late 1994 with our first beer being poured in February '95. We are a public corporation with over 1000 local and out of state stockholders. Bayhawk specializes in brewing House Beers for many fine restaurants and taverns throughout California, Arizona, Nevada, Oregon, and Washington. We just might be the Greatest Beer You Never Knew You Drank!", "statusDisplay": "Verified", "createDate": "2012-01-03 02:41:45", "locations": [{"status": "verified", "openToPublic": "Y", "isPrimary": "Y", "id": "hD9pCH", "locationTypeDisplay": "Micro Brewery", "inPlanning": "N", "locality": "Irvine", "createDate": "2012-01-03 02:41:45", "streetAddress": "2000 Main Street", "postalCode": "92614", "extendedAddress": "Suite A", "website": "http://www.bayhawkales.com/", "statusDisplay": "Verified", "yearOpened": "1995", "countryIsoCode": "US", "phone": "949-442-7565", "isClosed": "N", "name": "Main Brewery", "latitude": 33.684566, "locationType": "micro", "region": "California", "longitude": -117.8507925, "updateDate": "2014-07-23 19:11:34", "country": {"displayName": "United States", "name": "UNITED STATES", "isoThree": "USA", "createDate": "2012-01-03 02:41:33", "numberCode": 840, "isoCode": "US"}}], "status": "verified", "updateDate": "2013-01-20 22:13:17", "id": "DsvN0B", "name": "Bayhawk Ales"}], "name": "Pilzner", "statusDisplay": "Verified", "createDate": "2012-01-03 02:43:58", "labels": {"large": "https://s3.amazonaws.com/brewerydbapi/beer/qHPTJU/upload_m9jTyi-large.png", "medium": "https://s3.amazonaws.com/brewerydbapi/beer/qHPTJU/upload_m9jTyi-medium.png", "icon": "https://s3.amazonaws.com/brewerydbapi/beer/qHPTJU/upload_m9jTyi-icon.png"}, "style": {"category": {"createDate": "2012-03-21 20:06:46", "id": 8, "name": "North American Lager"}, "ogMin": "1.045", "description": "This classic and unique pre-Prohibition American-style Pilsener is straw to deep gold in color. Hop bitterness, flavor and aroma are medium to high, and use of noble-type hops for flavor and aroma is preferred. Up to 25 percent corn and/or rice in the grist should be used. Malt flavor and aroma are medium. This is a light-medium to medium-bodied beer. Sweet corn-like dimethylsulfide (DMS), fruity esters and American hop-derived citrus flavors or aromas should not be perceived. Diacetyl is not acceptable. There should be no chill haze. Competition organizers may wish to subcategorize this style into rice and corn subcategories.", "createDate": "2012-03-21 20:06:46", "ibuMin": "25", "categoryId": 8, "srmMax": "6", "ibuMax": "40", "abvMin": "5", "fgMin": "1.012", "fgMax": "1.018", "abvMax": "6", "id": 98, "srmMin": "3", "name": "American-Style Pilsener"}, "glass": {"createDate": "2012-01-03 02:41:33", "id": 4, "name": "Pilsner"}, "updateDate": "2012-03-22 13:05:26", "styleId": 98, "id": "qHPTJU", "glasswareId": 4}, {"status": "verified", "isOrganic": "N", "breweries": [{"website": "http://www.highwaterbrewing.com/", "established": "2011", "isOrganic": "N", "description": "Leveraging his successful 15 year brewing career, Brewmaster Steve Altimari has partnered with John Anthony, another seasoned veteran of the craft brewing industry, to start their own California Bay Area venture, High Water Brewing.\r\n\r\nInspired by the most creative brewing practices and styles across the world, Steve and John's love of beer and unbridled passion for all things flavorful have led to a line of products that represent the very best of the best. Together they have combined their visions of creating unique, flavorful beers and distributing them to as many people as possible.\r\n\r\nPartnering with award-winning Drake's Brewing Company, Steve will craft High Water beers at Drake's Brewhouse in San Leandro, CA; fermentation will occur in High Water tanks at that same location.", "statusDisplay": "Verified", "createDate": "2012-01-03 02:41:57", "locations": [{"status": "verified", "openToPublic": "N", "isPrimary": "N", "id": "9lCQIV", "locationTypeDisplay": "Office", "inPlanning": "N", "locality": "Stockton", "createDate": "2012-01-03 02:41:57", "streetAddress": "1559 W. Mendocino Ave.", "postalCode": "95204", "website": "http://www.highwaterbrewing.com/", "statusDisplay": "Verified", "yearOpened": "2011", "countryIsoCode": "US", "phone": "866.206.0482", "isClosed": "N", "name": "Main Brewery", "latitude": 37.973435, "locationType": "office", "region": "California", "longitude": -121.319794, "updateDate": "2014-07-26 11:07:30", "country": {"displayName": "United States", "name": "UNITED STATES", "isoThree": "USA", "createDate": "2012-01-03 02:41:33", "numberCode": 840, "isoCode": "US"}}, {"status": "verified", "openToPublic": "Y", "isPrimary": "Y", "id": "FudRo8", "locationTypeDisplay": "Micro Brewery", "inPlanning": "N", "locality": "Pittsburg", "createDate": "2014-07-25 19:40:36", "streetAddress": "300 Cumberland St.", "postalCode": "94565", "website": "http://www.highwaterbrewing.com", "statusDisplay": "Verified", "yearOpened": "2014", "countryIsoCode": "US", "phone": "(530) 440-9098", "isClosed": "N", "name": "High Water Brewing", "latitude": 38.033018, "locationType": "micro", "region": "California", "longitude": -121.882514, "updateDate": "2014-07-26 11:07:30", "country": {"displayName": "United States", "name": "UNITED STATES", "isoThree": "USA", "createDate": "2012-01-03 02:41:33", "numberCode": 840, "isoCode": "US"}}], "status": "verified", "updateDate": "2012-03-21 19:06:11", "images": {"large": "https://s3.amazonaws.com/brewerydbapi/brewery/y4ip96/upload_AhkMW1-large.png", "medium": "https://s3.amazonaws.com/brewerydbapi/brewery/y4ip96/upload_AhkMW1-medium.png", "icon": "https://s3.amazonaws.com/brewerydbapi/brewery/y4ip96/upload_AhkMW1-icon.png"}, "id": "y4ip96", "name": "High Water Brewing"}], "name": "Pim Cherry Bomb", "statusDisplay": "Verified", "createDate": "2012-01-03 02:43:58", "labels": {"large": "https://s3.amazonaws.com/brewerydbapi/beer/0S8XZk/upload_qCyWS5-large.png", "medium": "https://s3.amazonaws.com/brewerydbapi/beer/0S8XZk/upload_qCyWS5-medium.png", "icon": "https://s3.amazonaws.com/brewerydbapi/beer/0S8XZk/upload_qCyWS5-icon.png"}, "style": {"category": {"createDate": "2012-03-21 20:06:46", "id": 11, "name": "Hybrid/mixed Beer"}, "ogMin": "1.03", "description": "These beers are brewed using unusual fermentable sugars, grains and starches that contribute to alcohol content other than, or in addition to, malted barley. Nuts generally have some degree of fermentables, thus beers brewed with nuts would appropriately be entered in this category. The distinctive characters of these special ingredients should be evident either in the aroma, flavor or overall balance of the beer, but not necessarily in overpowering quantities. For example, maple syrup or potatoes would be considered unusual. Rice, corn, or wheat are not considered unusual. Special ingredients must be listed when competing. A statement by the brewer explaining the special nature of the beer, ingredient(s) and achieved character is essential in order for fair assessment in competitions. If this beer is a classic style with some specialty ingredient(s), the brewer should also specify the classic style. Guidelines for competing: Spiced beers using unusual fermentables should be entered in the experimental category. Fruit beers using unusual fermentables should be entered in the fruit beer category.", "createDate": "2012-03-21 20:06:46", "categoryId": 11, "srmMax": "100", "ibuMax": "100", "abvMin": "2.5", "fgMin": "1.006", "fgMax": "1.03", "abvMax": "25", "id": 125, "srmMin": "1", "name": "Specialty Beer"}, "glass": {"createDate": "2012-01-03 02:41:33", "id": 5, "name": "Pint"}, "updateDate": "2012-03-22 13:05:27", "abv": "7", "styleId": 125, "id": "0S8XZk", "glasswareId": 5}, {"status": "verified", "isOrganic": "N", "breweries": [{"website": "http://www.clownshoesbeer.com/", "established": "2009", "isOrganic": "N", "description": "Founded in December 2009 by beer lovers trying to make work fun again, Clown Shoes has been redefining what craft beer should be. We strive to add our own little creative twists on under-represented styles and styles in need of change.\r\n\r\nOur mission now is to produce beer without pretension while being free and a little crazy.", "statusDisplay": "Verified", "createDate": "2012-01-03 02:41:51", "locations": [{"status": "verified", "openToPublic": "Y", "isPrimary": "Y", "id": "DAYWFN", "locationTypeDisplay": "Micro Brewery", "inPlanning": "N", "locality": "Ipswich", "createDate": "2012-01-03 02:41:51", "streetAddress": "23 Hayward St.", "latitude": 42.672726, "website": "http://www.clownshoesbeer.com/", "statusDisplay": "Verified", "yearOpened": "2010", "countryIsoCode": "US", "postalCode": "01938", "isClosed": "N", "name": "Main Brewery", "locationType": "micro", "region": "Massachusetts", "longitude": -70.843912, "updateDate": "2014-07-23 19:11:34", "country": {"displayName": "United States", "name": "UNITED STATES", "isoThree": "USA", "createDate": "2012-01-03 02:41:33", "numberCode": 840, "isoCode": "US"}}], "status": "verified", "updateDate": "2012-08-20 17:11:43", "images": {"large": "https://s3.amazonaws.com/brewerydbapi/brewery/6cIt3k/upload_c77AcA-large.png", "medium": "https://s3.amazonaws.com/brewerydbapi/brewery/6cIt3k/upload_c77AcA-medium.png", "icon": "https://s3.amazonaws.com/brewerydbapi/brewery/6cIt3k/upload_c77AcA-icon.png"}, "id": "6cIt3k", "name": "Clown Shoes Beer"}], "description": "Brash Brewing Company, the brain child of Petrol Station\u2019s Ben Fullelove, collaborated with us to make Pimp. Ben made a recipe for a double batch of a rich Belgian brown and we made a double batch of a 10% version of Brown Angel. The two beers were blended to make Pimp, a double, double brown ale.", "statusDisplay": "Verified", "createDate": "2012-08-20 17:13:35", "labels": {"large": "https://s3.amazonaws.com/brewerydbapi/beer/EtP6Zf/upload_C1C4Y1-large.png", "medium": "https://s3.amazonaws.com/brewerydbapi/beer/EtP6Zf/upload_C1C4Y1-medium.png", "icon": "https://s3.amazonaws.com/brewerydbapi/beer/EtP6Zf/upload_C1C4Y1-icon.png"}, "style": {"category": {"createDate": "2012-03-21 20:06:45", "id": 3, "name": "North American Origin Ales"}, "ogMin": "1.04", "description": "American brown ales range from deep copper to brown in color. Roasted malt caramel-like and chocolate-like characters should be of medium intensity in both flavor and aroma. American brown ales have evident low to medium hop flavor and aroma, medium to high hop bitterness, and a medium body. Estery and fruity-ester characters should be subdued. Diacetyl should not be perceived. Chill haze is allowable at cold temperatures.", "createDate": "2012-03-21 20:06:46", "ibuMin": "25", "categoryId": 3, "srmMax": "26", "ibuMax": "45", "abvMin": "4", "fgMin": "1.01", "fgMax": "1.018", "abvMax": "6.4", "id": 37, "srmMin": "15", "name": "American-Style Brown Ale"}, "updateDate": "2014-10-18 09:08:18", "styleId": 37, "id": "EtP6Zf", "name": "Pimp"}, {"status": "verified", "isOrganic": "N", "breweries": [{"website": "http://www.dockstreetbeer.com", "established": "1985", "isOrganic": "N", "description": "Founded in 1985, Dock Street Brewing Co. was the first microbrewery in Philadelphia and one of the first in the country.  Today, Dock Street is a small artisanal brewery that finds its home in a magnificent historic firehouse on the corner of 50th and Baltimore Ave., in a progressive, eclectic and counter-culture neighborhood that reflects Dock Street's philosophy.  Dock Street has a rich brewing history, a reputation for exceptional quality, innovation and brewing distinctive beers.  Dock Street continues to experiment and push the boundaries of the movement it helped build.", "statusDisplay": "Verified", "createDate": "2012-01-03 02:41:52", "mailingListUrl": "http://www.dockstreetbeer.com/Contact.html", "locations": [{"status": "verified", "openToPublic": "Y", "isPrimary": "Y", "id": "HFQ27P", "locationTypeDisplay": "Micro Brewery", "inPlanning": "N", "locality": "West Philly", "createDate": "2012-01-03 02:41:52", "streetAddress": "701 S. 50th Street", "postalCode": "19143", "website": "http://www.dockstreetbeer.com", "statusDisplay": "Verified", "countryIsoCode": "US", "phone": "(215)-726-2337", "isClosed": "N", "name": "Main Brewery", "latitude": 39.9477956, "locationType": "micro", "region": "Pennsylvania", "longitude": -75.2229305, "updateDate": "2014-07-23 19:11:34", "country": {"displayName": "United States", "name": "UNITED STATES", "isoThree": "USA", "createDate": "2012-01-03 02:41:33", "numberCode": 840, "isoCode": "US"}}], "status": "verified", "updateDate": "2013-08-14 23:47:37", "images": {"large": "https://s3.amazonaws.com/brewerydbapi/brewery/p3YrOa/upload_H61RBt-large.png", "medium": "https://s3.amazonaws.com/brewerydbapi/brewery/p3YrOa/upload_H61RBt-medium.png", "icon": "https://s3.amazonaws.com/brewerydbapi/brewery/p3YrOa/upload_H61RBt-icon.png"}, "id": "p3YrOa", "name": "Dock Street Brewery"}], "name": "Pimp My Ride", "createDate": "2014-04-14 09:09:49", "labels": {"large": "https://s3.amazonaws.com/brewerydbapi/beer/aPMdQj/upload_7hO0Cn-large.png", "medium": "https://s3.amazonaws.com/brewerydbapi/beer/aPMdQj/upload_7hO0Cn-medium.png", "icon": "https://s3.amazonaws.com/brewerydbapi/beer/aPMdQj/upload_7hO0Cn-icon.png"}, "style": {"category": {"createDate": "2012-03-21 20:06:45", "id": 3, "name": "North American Origin Ales"}, "ogMin": "1.075", "description": "Imperial or Double India Pale Ales have intense hop bitterness, flavor and aroma. Alcohol content is medium-high to high and notably evident. They range from deep golden to medium copper in color. The style may use any variety of hops. Though the hop character is intense it's balanced with complex alcohol flavors, moderate to high fruity esters and medium to high malt character. Hop character should be fresh and lively and should not be harsh in quality. The use of large amounts of hops may cause a degree of appropriate hop haze. Imperial or Double India Pale Ales have medium-high to full body. Diacetyl should not be perceived. The intention of this style of beer is to exhibit the fresh and bright character of hops. Oxidative character and aged character should not be present.", "createDate": "2012-03-21 20:06:45", "ibuMin": "65", "categoryId": 3, "srmMax": "13", "ibuMax": "100", "abvMin": "7.5", "fgMin": "1.012", "fgMax": "1.02", "abvMax": "10.5", "id": 31, "srmMin": "5", "name": "Imperial or Double India Pale Ale"}, "updateDate": "2014-04-14 09:34:38", "abv": "7.8", "styleId": 31, "id": "aPMdQj", "statusDisplay": "Verified"}, {"status": "verified", "isOrganic": "N", "statusDisplay": "Verified", "createDate": "2014-08-11 18:22:36", "breweries": [{"website": "http://www.sewardbrewingcompany.com/", "established": "2012", "isOrganic": "N", "description": "Seward Alaska's only Brewhouse and Restaurant serving award winning beers by Consultant Brewer Kevin Burton and great Alaskan food by Matthew Zimny.", "statusDisplay": "Verified", "createDate": "2013-08-11 18:17:49", "locations": [{"status": "verified", "openToPublic": "Y", "isPrimary": "Y", "hoursOfOperation": "Mon - Thu: 4:00 pm - 9:00 pm\r\nFri: 4:00 pm - 10:00 pm\r\nSat: 11:00 am - 10:00 pm\r\nSun: 11:00 am - 9:00 pm", "locationTypeDisplay": "Micro Brewery", "inPlanning": "N", "locality": "Seward", "createDate": "2013-08-14 11:47:01", "id": "Byq1Bk", "streetAddress": "139 4th Avenue", "postalCode": "99664", "website": "http://www.sewardbrewingcompany.com/", "statusDisplay": "Verified", "yearOpened": "2012", "countryIsoCode": "US", "phone": "(907) 422-0337", "isClosed": "N", "name": "Main Brewery", "latitude": 60.1011069, "locationType": "micro", "region": "Alaska", "longitude": -149.4405052, "updateDate": "2014-07-23 19:11:34", "country": {"displayName": "United States", "name": "UNITED STATES", "isoThree": "USA", "createDate": "2012-01-03 02:41:33", "numberCode": 840, "isoCode": "US"}}], "status": "verified", "updateDate": "2013-08-14 11:47:11", "images": {"large": "https://s3.amazonaws.com/brewerydbapi/brewery/kDhJT9/upload_qQHhZR-large.png", "medium": "https://s3.amazonaws.com/brewerydbapi/brewery/kDhJT9/upload_qQHhZR-medium.png", "icon": "https://s3.amazonaws.com/brewerydbapi/brewery/kDhJT9/upload_qQHhZR-icon.png"}, "id": "kDhJT9", "name": "Seward Brewing Company"}], "style": {"category": {"createDate": "2012-03-21 20:06:45", "id": 3, "name": "North American Origin Ales"}, "ogMin": "1.06", "description": "American-style India pale ales are perceived to have medium-high to intense hop bitterness, flavor and aroma with medium-high alcohol content. The style is further characterized by floral, fruity, citrus-like, piney, resinous, or sulfur-like American-variety hop character. Note that one or more of these American-variety hop characters is the perceived end, but the hop characters may be a result of the skillful use of hops of other national origins. The use of water with high mineral content results in a crisp, dry beer. This pale gold to deep copper-colored ale has a full, flowery hop aroma and may have a strong hop flavor (in addition to the perception of hop bitterness). India pale ales possess medium maltiness which contributes to a medium body. Fruity-ester flavors and aromas are moderate to very strong. Diacetyl can be absent or may be perceived at very low levels. Chill and/or hop haze is allowable at cold temperatures. (English and citrus-like American hops are considered enough of a distinction justifying separate American-style IPA and English-style IPA categories or subcategories. Hops of other origins may be used for bitterness or approximating traditional American or English character. See English-style India Pale Ale", "createDate": "2012-03-21 20:06:45", "ibuMin": "50", "categoryId": 3, "srmMax": "14", "ibuMax": "70", "abvMin": "6.3", "fgMin": "1.012", "fgMax": "1.018", "abvMax": "7.5", "id": 30, "srmMin": "6", "name": "American-Style India Pale Ale"}, "updateDate": "2014-08-12 12:31:21", "styleId": 30, "id": "Fmy9RO", "name": "Pin Bone IPA"}, {"status": "verified", "isOrganic": "N", "description": "Naming beers may be the hardest thing about brewing. There is just so much pressure to come up with something clever, witty, meaningful, etc. This time around we just kept it simple. We found a picture of a hot chick from the 40\u2032s, and it inspired us. With that\u2026we introduce Pin-Up Pale.\r\n\r\nBittered with Summit, and dry hopped with Citra and Chinook, it\u2019s herbal hop aroma and San Diego-style bitterness push the Pale Ale boundaries. A simple malt bill of pale 2-Row, North American and German crystal, flaked wheat, and dextrine keep it hop forward yet malty balanced.", "statusDisplay": "Verified", "createDate": "2012-04-12 00:17:02", "breweries": [{"website": "http://www.motherearthbrewco.com/", "established": "2008", "isOrganic": "N", "description": "In early 2010, Mother Earth launched a unique brewing supply store and tasting room at its new Vista, CA location. Just a half mile from the 78 freeway and just minutes from the I-5, Mother Earth Brew Co. is right in the middle of the \"North County Beer Triangle\" in North San Diego County. \r\n\r\nOur business caters to home brewers seeking the highest quality, freshest ingredients and to people who enjoy sampling great beers - many of which are exclusively available at our tasting bar! Come on by for a truly unique experience, and always remember...Love Your Mother!", "statusDisplay": "Verified", "createDate": "2012-01-03 02:42:02", "locations": [{"status": "verified", "openToPublic": "Y", "isPrimary": "Y", "hoursOfOperation": "Retail Store\t\r\nSun: 12pm to 5:30pm\r\nMon: Closed\r\nTues: Closed\r\nWed: 11am to 7pm\r\nThurs: 11am to 8pm\r\nFri: 11am to 8pm\r\nSat: 12pm to 5:30pm\r\n\r\nTasting Room\r\nSun: 12pm to 5pm\r\nMon: Closed\r\nTues: Closed\r\nWed: Closed\r\nThurs: 4pm to 8pm\r\nFri: 4pm to 8pm\r\nSat: 12pm to 5pm", "locationTypeDisplay": "Micro Brewery", "inPlanning": "N", "locality": "Vista", "createDate": "2012-01-03 02:42:02", "id": "ZJPZPc", "streetAddress": "2055 Thibodo Rd", "postalCode": "92081", "extendedAddress": "Suite H.", "website": "http://www.motherearthbrewco.com/", "statusDisplay": "Verified", "yearOpened": "2008", "countryIsoCode": "US", "phone": "760-599-4225", "isClosed": "N", "name": "Main Brewery", "latitude": 33.1682803, "locationType": "micro", "region": "California", "longitude": -117.2198359, "updateDate": "2014-07-23 19:11:34", "country": {"displayName": "United States", "name": "UNITED STATES", "isoThree": "USA", "createDate": "2012-01-03 02:41:33", "numberCode": 840, "isoCode": "US"}}], "status": "verified", "updateDate": "2014-03-16 21:42:42", "images": {"large": "https://s3.amazonaws.com/brewerydbapi/brewery/NwFxny/upload_Q8CEgY-large.png", "medium": "https://s3.amazonaws.com/brewerydbapi/brewery/NwFxny/upload_Q8CEgY-medium.png", "icon": "https://s3.amazonaws.com/brewerydbapi/brewery/NwFxny/upload_Q8CEgY-icon.png"}, "id": "NwFxny", "name": "Mother Earth Brew Company"}], "style": {"category": {"createDate": "2012-03-21 20:06:45", "id": 3, "name": "North American Origin Ales"}, "ogMin": "1.044", "description": "American pale ales range from deep golden to copper in color. The style is characterized by fruity, floral and citrus-like American-variety hop character producing medium to medium-high hop bitterness, flavor, and aroma. Note that the \"traditional\" style of this beer has its origins with certain floral, fruity, citrus-like, piney, resinous, or sulfur-like American hop varietals. One or more of these hop characters is the perceived end, but the perceived hop characters may be a result of the skillful use of hops of other national origins. American pale ales have medium body and low to medium maltiness. Low caramel character is allowable. Fruity-ester flavor and aroma should be moderate to strong. Diacetyl should be absent or present at very low levels. Chill haze is allowable at cold temperatures.", "createDate": "2012-03-21 20:06:45", "ibuMin": "30", "categoryId": 3, "srmMax": "14", "ibuMax": "42", "abvMin": "4.5", "fgMin": "1.008", "fgMax": "1.014", "abvMax": "5.6", "id": 25, "srmMin": "6", "name": "American-Style Pale Ale"}, "id": "IYViwt", "updateDate": "2014-10-20 19:34:43", "abv": "5.6", "styleId": 25, "ibu": "43", "name": "Pin Up"}, {"status": "verified", "isOrganic": "N", "name": "Pina Colada", "createDate": "2014-07-21 16:34:14", "breweries": [{"website": "http://www.parrotbay.com/", "status": "verified", "isOrganic": "N", "name": "Captain Morgan Co", "createDate": "2014-07-21 16:28:50", "locations": [{"inPlanning": "N", "countryIsoCode": "US", "name": "Main Office", "locality": "Norwalk", "openToPublic": "Y", "locationType": "office", "region": "Connecticut", "longitude": -73.4081575, "isClosed": "N", "createDate": "2014-07-21 20:00:49", "status": "verified", "updateDate": "2014-07-23 19:11:34", "country": {"displayName": "United States", "name": "UNITED STATES", "isoThree": "USA", "createDate": "2012-01-03 02:41:33", "numberCode": 840, "isoCode": "US"}, "latitude": 41.117744, "isPrimary": "Y", "id": "bxldJ5", "locationTypeDisplay": "Office", "statusDisplay": "Verified"}], "updateDate": "2014-07-21 20:00:25", "images": {"large": "https://s3.amazonaws.com/brewerydbapi/brewery/FHzSic/upload_wW0dNj-large.png", "medium": "https://s3.amazonaws.com/brewerydbapi/brewery/FHzSic/upload_wW0dNj-medium.png", "icon": "https://s3.amazonaws.com/brewerydbapi/brewery/FHzSic/upload_wW0dNj-icon.png"}, "id": "FHzSic", "statusDisplay": "Verified"}], "style": {"category": {"updateDate": "2014-07-10 14:20:24", "description": "Malternative Beverages, also known as \"ready-to-drink\" beverages, are sweet, sometime carbonated, beverages that are low in alcohol.", "createDate": "2014-07-10 14:11:26", "id": 14, "name": "Malternative Beverages"}, "description": "Flavored malt beverages are brewery products that are different from traditional malt beverages like malt liquor, ales, and lagers in several aspects. Flavored malt beverages exhibit little or no traditional beer or malt beverage flavor characteristics. Their flavor is primarily derived from added flavoring rather than from malt and other materials used in fermentation. However,  flavored malt beverages are marketed in traditional beer bottles and cans and distributed to the alcohol beverage market through beer and malt beverage wholesalers. Their alcohol content is similar to other malt beverages \u2013\u00a0in the range of 4-6% alcohol by volume.", "createDate": "2014-07-10 14:15:20", "categoryId": 14, "abvMin": "4", "updateDate": "2014-07-10 14:38:34", "abvMax": "6", "id": 161, "name": "Flavored Malt Beverage"}, "updateDate": "2014-07-24 11:38:37", "abv": "5", "styleId": 161, "id": "jKJwlF", "statusDisplay": "Verified"}, {"status": "verified", "isOrganic": "N", "description": "Our lightest beer, with Fresno & Guahillo chilis added cold after fermentation.  No burn, very easy drinking, great chili flavor & aroma.", "statusDisplay": "Verified", "createDate": "2013-08-05 20:57:04", "breweries": [{"website": "http://aftershockbrewingco.com/", "established": "2012", "isOrganic": "N", "description": "After 27 years of steady brewing, we thought it would be fun to share the results of the brewing experience with others.  We are a small brewery, and are truly \u201chands on\u201d every step of the brewing process.  Our goal is to produce the best, most flavorful, most memorable local beers possible.  We think we\u2019ve met that goal, & hope you\u2019ll agree.\r\n\r\nAt Aftershock, we believe there are two different approaches to brewing.  The most common approach used by the major breweries is a \u2018scientific one\u2019.  All stages of the brewing process are closely monitored to ensure a consistent, if tasteless product.  Computers and other high tech equipment are more in control than the brewer himself.  With this approach you get \u2018scientific\u2019 beer.  The other approach is a more artistic one, while still respecting basic laws of science, and the need for spotless cleanliness.  That\u2019s the approach we plan to always take at Aftershock.  At the risk of losing an undetectable amount of consistency, the result is beer with much more character, subtle nuances, and awesome flavor.  Don\u2019t take our word for it; check us out.", "statusDisplay": "Verified", "createDate": "2013-08-05 17:29:50", "locations": [{"openToPublic": "Y", "isPrimary": "Y", "hoursOfOperation": "Mon:  3:00pm - 8:00pm\nTue:  3:00pm - 8:00pm\nWed:  1:00pm - 8:00pm\nThu:  1:00pm - 8:00pm\nFri:  1:00pm - 8:00pm\nSat:  1:00pm - 8:00pm\nSun:  1:00pm - 8:00pm\n\nMon - Tue: 3:00 pm - 8:00 pm\r\nWed - Sun: 1:00 pm - 8:00 pm", "locationTypeDisplay": "Micro Brewery", "inPlanning": "N", "locality": "Temecula", "createDate": "2013-08-05 20:38:30", "id": "ALh0q8", "streetAddress": "28822 Old Town Front St", "postalCode": "92590", "extendedAddress": "#209", "status": "verified", "statusDisplay": "Verified", "yearOpened": "2012", "countryIsoCode": "US", "phone": "951.972.2256", "isClosed": "N", "name": "Main Brewery", "latitude": 33.4882913, "locationType": "micro", "region": "California", "longitude": -117.1445094, "updateDate": "2014-08-25 19:12:21", "country": {"displayName": "United States", "name": "UNITED STATES", "isoThree": "USA", "createDate": "2012-01-03 02:41:33", "numberCode": 840, "isoCode": "US"}}], "status": "verified", "updateDate": "2014-02-02 15:20:04", "images": {"large": "https://s3.amazonaws.com/brewerydbapi/brewery/SdHg0o/upload_W9i74D-large.png", "medium": "https://s3.amazonaws.com/brewerydbapi/brewery/SdHg0o/upload_W9i74D-medium.png", "icon": "https://s3.amazonaws.com/brewerydbapi/brewery/SdHg0o/upload_W9i74D-icon.png"}, "id": "SdHg0o", "name": "Aftershock Brewing Company"}], "style": {"category": {"createDate": "2012-03-21 20:06:46", "id": 11, "name": "Hybrid/mixed Beer"}, "ogMin": "1.045", "description": "California Common Beer is light amber to amber in color and is medium bodied. There is a noticeable degree of caramel-type malt character in flavor and often in aroma. Hop bitterness impression is medium to medium high and is balanced with a low to medium-low degree of fruity esters and malt character and give an impression of balance and drinkability. Hop flavor and aroma is low to medium-low. California Common Beer is a style of beer brewed with lager yeasts but at ale fermentation temperatures. Diacetyl and chill haze should be absent.", "createDate": "2012-03-21 20:06:46", "ibuMin": "35", "categoryId": 11, "srmMax": "15", "ibuMax": "45", "abvMin": "4.5", "fgMin": "1.01", "fgMax": "1.018", "abvMax": "5.6", "id": 110, "srmMin": "8", "name": "California Common Beer"}, "updateDate": "2013-08-05 20:57:04", "abv": "4.9", "styleId": 110, "id": "kZNfPE", "name": "Pinacate"}, {"status": "verified", "isOrganic": "N", "breweries": [{"status": "verified", "isOrganic": "N", "statusDisplay": "Verified", "createDate": "2012-01-03 02:42:07", "locations": [{"inPlanning": "N", "countryIsoCode": "US", "name": "Main Brewery", "locality": "Denver", "openToPublic": "Y", "locationType": "micro", "region": "Colorado", "longitude": -104.992483, "isClosed": "N", "phone": "1-303-298-1587", "streetAddress": "2145 Blake Street", "createDate": "2012-01-03 02:42:07", "status": "verified", "updateDate": "2014-07-23 19:11:34", "country": {"displayName": "United States", "name": "UNITED STATES", "isoThree": "USA", "createDate": "2012-01-03 02:41:33", "numberCode": 840, "isoCode": "US"}, "postalCode": "80205", "latitude": 39.7557343, "isPrimary": "Y", "id": "5m3m5l", "locationTypeDisplay": "Micro Brewery", "statusDisplay": "Verified"}], "updateDate": "2012-03-21 19:06:08", "id": "JBt20m", "name": "SandLot Brewery at Coors Field"}], "name": "Pinch Hit Pilsner", "createDate": "2012-01-03 02:43:58", "labels": {"large": "https://s3.amazonaws.com/brewerydbapi/beer/SuSH0g/upload_b9no30-large.png", "medium": "https://s3.amazonaws.com/brewerydbapi/beer/SuSH0g/upload_b9no30-medium.png", "icon": "https://s3.amazonaws.com/brewerydbapi/beer/SuSH0g/upload_b9no30-icon.png"}, "style": {"category": {"createDate": "2012-03-21 20:06:46", "id": 8, "name": "North American Lager"}, "ogMin": "1.045", "description": "This classic and unique pre-Prohibition American-style Pilsener is straw to deep gold in color. Hop bitterness, flavor and aroma are medium to high, and use of noble-type hops for flavor and aroma is preferred. Up to 25 percent corn and/or rice in the grist should be used. Malt flavor and aroma are medium. This is a light-medium to medium-bodied beer. Sweet corn-like dimethylsulfide (DMS), fruity esters and American hop-derived citrus flavors or aromas should not be perceived. Diacetyl is not acceptable. There should be no chill haze. Competition organizers may wish to subcategorize this style into rice and corn subcategories.", "createDate": "2012-03-21 20:06:46", "ibuMin": "25", "categoryId": 8, "srmMax": "6", "ibuMax": "40", "abvMin": "5", "fgMin": "1.012", "fgMax": "1.018", "abvMax": "6", "id": 98, "srmMin": "3", "name": "American-Style Pilsener"}, "updateDate": "2014-10-09 16:04:41", "styleId": 98, "id": "SuSH0g", "statusDisplay": "Verified"}, {"status": "verified", "isOrganic": "N", "name": "Pinch The Piston", "createDate": "2012-12-13 21:11:37", "breweries": [{"website": "http://www.atgbrewery.com/", "established": "2012", "isOrganic": "N", "description": "Louisville's only brewer-owned brewery is, like most worthwhile undertakings, the product of dissatisfaction with the status quo. The Louisville area has had a number of quality brewpubs for some time now, but still there was simply not enough beer! Against the Grain is an effort to help solve this problem. We maintain a diverse array of beers covering all of the major categories of beer flavor while generating an endless stream of innovative new brews. In short, everything is \"specialty\" Boredom will be extremely difficult.\r\n\r\nOur food is designed with same philosophy as our brewing. Fresh and interesting smokehouse fare with a gastropub flare lets us bring you the very best flavors to stand alone and to compliment our beers. Regular menu changes allow us to take full advantage of the best seasonal ingredients, our chef's whim, and optimal pairing with our dynamic beer list.\r\n\r\nThrow your preconceived notions right the hell out the window. We aren't just another brewpub. We are Against the Grain!", "statusDisplay": "Verified", "createDate": "2012-04-15 19:19:34", "locations": [{"openToPublic": "Y", "isPrimary": "Y", "hoursOfOperation": "Mon:  11:00am - 12:00am\nTue:  11:00am - 12:00am\nWed:  11:00am - 12:00am\nThu:  11:00am - 2:00am\nFri:  11:00am - 2:00am\nSat:  11:00am - 2:00am\nSun:  12:00pm - 9:00pm\n\nMon-Wed: 11:00 am to Midnight\r\n(kitchen closes at 10pm)\r\nThurs-Sat: 11:00 am to 2:00 am\r\n(kitchen closes at 10pm)\r\nSun: Noon to 9:00 pm", "locationTypeDisplay": "Brewpub", "inPlanning": "N", "locality": "Louisville", "createDate": "2012-04-15 19:21:48", "id": "tkaZbQ", "streetAddress": "401 East Main St.", "postalCode": "40202", "status": "verified", "statusDisplay": "Verified", "yearOpened": "2012", "countryIsoCode": "US", "phone": "(502) 515-0174", "isClosed": "N", "name": "Main Brewery", "latitude": 38.2555029, "locationType": "brewpub", "region": "Kentucky", "longitude": -85.7441124, "updateDate": "2014-08-25 19:12:22", "country": {"displayName": "United States", "name": "UNITED STATES", "isoThree": "USA", "createDate": "2012-01-03 02:41:33", "numberCode": 840, "isoCode": "US"}}], "status": "verified", "updateDate": "2012-12-13 03:47:30", "images": {"large": "https://s3.amazonaws.com/brewerydbapi/brewery/BqFigo/upload_gvUBj5-large.png", "medium": "https://s3.amazonaws.com/brewerydbapi/brewery/BqFigo/upload_gvUBj5-medium.png", "icon": "https://s3.amazonaws.com/brewerydbapi/brewery/BqFigo/upload_gvUBj5-icon.png"}, "id": "BqFigo", "name": "Against The Grain Brewery"}], "style": {"category": {"createDate": "2012-03-21 20:06:46", "id": 4, "name": "German Origin Ales"}, "ogMin": "1.044", "description": "Copper to brown in color, this German ale may be highly hopped and intensely bitter (although the 25 to 35 IBU range is more normal for the majority of Altbiers from D\u00fcsseldorf) and has a medium body and malty flavor. A variety of malts, including wheat, may be used. Hop character may be low to medium in the flavor and aroma. The overall impression is clean, crisp, and flavorful often with a dry finish. Fruity esters can be low. No diacetyl or chill haze should be perceived.", "createDate": "2012-03-21 20:06:46", "ibuMin": "25", "categoryId": 4, "srmMax": "19", "ibuMax": "52", "abvMin": "4.3", "fgMin": "1.008", "fgMax": "1.014", "abvMax": "5.5", "id": 55, "srmMin": "11", "name": "German-Style Brown Ale / D\u00fcsseldorf-Style Altbier"}, "updateDate": "2012-12-13 21:11:38", "abv": "5.5", "styleId": 55, "id": "O0HvzT", "statusDisplay": "Verified"}, {"status": "verified", "available": {"description": "Available year round as a staple beer.", "id": 1, "name": "Year Round"}, "isOrganic": "N", "description": "Our newest beer. A Red Ale with plenty of flavor, just not packing the heat of some of our stronger beers. Drink it for breakfast, at lunch, or all day long.", "statusDisplay": "Verified", "createDate": "2012-04-23 18:00:35", "breweries": [{"website": "http://www.marshallwharf.com/", "established": "2007", "isOrganic": "N", "description": "We have 17 draft lines dedicated to our beers. Some beers are brewed seasonally, but we try to keep different brews coming in all the time.\r\n\r\nMarshall Wharf is the house brewery for Three Tides.", "statusDisplay": "Verified", "createDate": "2012-01-03 02:42:01", "locations": [{"status": "verified", "openToPublic": "Y", "isPrimary": "Y", "id": "RH5181", "locationTypeDisplay": "Brewpub", "inPlanning": "N", "locality": "Belfast", "createDate": "2012-01-03 02:42:01", "streetAddress": "2 Pinchy Lane", "postalCode": "04915", "website": "http://www.marshallwharf.com/", "statusDisplay": "Verified", "countryIsoCode": "US", "phone": "207-338-1707", "isClosed": "N", "name": "Main Brewery", "latitude": 44.428722, "locationType": "brewpub", "region": "Maine", "longitude": -69.005409, "updateDate": "2014-09-26 13:34:52", "country": {"displayName": "United States", "name": "UNITED STATES", "isoThree": "USA", "createDate": "2012-01-03 02:41:33", "numberCode": 840, "isoCode": "US"}}], "status": "verified", "updateDate": "2012-04-23 18:01:12", "images": {"large": "https://s3.amazonaws.com/brewerydbapi/brewery/MGFWci/upload_egzORl-large.png", "medium": "https://s3.amazonaws.com/brewerydbapi/brewery/MGFWci/upload_egzORl-medium.png", "icon": "https://s3.amazonaws.com/brewerydbapi/brewery/MGFWci/upload_egzORl-icon.png"}, "id": "MGFWci", "name": "Marshall Wharf Brewing Company"}], "style": {"category": {"createDate": "2012-03-21 20:06:45", "id": 3, "name": "North American Origin Ales"}, "ogMin": "1.048", "description": "American amber/red ales range from light copper to light brown in color. They are characterized by American-variety hops used to produce the perception of medium hop bitterness, flavor, and medium aroma. Amber ales have medium-high to high maltiness with medium to low caramel character. They should have medium to medium-high body. The style may have low levels of fruityester flavor and aroma. Diacetyl can be either absent or barely perceived at very low levels. Chill haze is allowable at cold temperatures. Slight yeast haze is acceptable for bottle-conditioned products.", "createDate": "2012-03-21 20:06:45", "ibuMin": "30", "categoryId": 3, "srmMax": "18", "ibuMax": "40", "abvMin": "4.5", "fgMin": "1.012", "fgMax": "1.018", "abvMax": "6", "id": 32, "srmMin": "11", "name": "American-Style Amber/Red Ale"}, "name": "Pinchy", "glass": {"createDate": "2012-01-03 02:41:33", "id": 5, "name": "Pint"}, "updateDate": "2012-04-23 18:03:14", "abv": "3", "styleId": 32, "availableId": 1, "id": "jXwMKK", "glasswareId": 5}, {"status": "verified", "available": {"description": "Available during the fall months.", "id": 7, "name": "Fall"}, "isOrganic": "N", "breweries": [{"website": "http://www.avbc.com/", "established": "1987", "isOrganic": "N", "description": "We carefully craft our world-class ales using only the finest ingredients; premium malted and roasted grains, hops, yeast, and pristine Boonville water straight from our own unique aquifer, and we never heat pasteurize or sterile filter our beers. Our tradition of carefully crafting inspired, flavorful, ales of the highest caliber has earned numerous awards, a loyal following, and our two-time placement among the World Beer Championships\u00ae as well as a 2011 Gold Medal at the GABF\u00ae for our Brother David's Double.", "statusDisplay": "Verified", "createDate": "2012-01-03 02:41:44", "mailingListUrl": "http://avbc.us6.list-manage.com/subscribe/post?u=2cb45008e5e76e0fc31ba0010&id=1f7b2fc315", "locations": [{"status": "verified", "openToPublic": "Y", "isPrimary": "Y", "hoursOfOperation": "Mon:  11:00am - 6:00pm\nTue:  11:00am - 6:00pm\nWed:  11:00am - 6:00pm\nThu:  11:00am - 6:00pm\nFri:  11:00am - 7:00pm\nSat:  11:00am - 6:00pm\nSun:  11:00am - 6:00pm\n\nMon - Thu: 11:00 am - 6:00 pm\r\nFri: 11:00 am - 7:00 pm\r\nSat - Sun: 11:00 am - 6:00 pm", "locationTypeDisplay": "Micro Brewery", "inPlanning": "N", "locality": "Boonville", "createDate": "2012-01-03 02:41:44", "id": "rGUQ04", "streetAddress": "17700 Boonville Rd", "postalCode": "95415", "website": "http://www.avbc.com/", "statusDisplay": "Verified", "countryIsoCode": "US", "phone": "800-207-2337", "isClosed": "N", "name": "Main Brewery", "latitude": 39.001384, "locationType": "micro", "region": "California", "longitude": -123.356081, "updateDate": "2014-08-25 19:12:46", "country": {"displayName": "United States", "name": "UNITED STATES", "isoThree": "USA", "createDate": "2012-01-03 02:41:33", "numberCode": 840, "isoCode": "US"}}], "status": "verified", "updateDate": "2014-02-05 13:32:14", "images": {"large": "https://s3.amazonaws.com/brewerydbapi/brewery/L2dAEr/upload_L1NIIw-large.png", "medium": "https://s3.amazonaws.com/brewerydbapi/brewery/L2dAEr/upload_L1NIIw-medium.png", "icon": "https://s3.amazonaws.com/brewerydbapi/brewery/L2dAEr/upload_L1NIIw-icon.png"}, "id": "L2dAEr", "name": "Anderson Valley Brewing Company"}], "updateDate": "2014-11-09 14:40:02", "description": "Aged for 6 months in Wild Turkey\u00ae barrels, this bourbon barrel-aged pumpkin ale is pleasantly creamy with a silky body and sweet caramel flavor.  The aging process imparts notes of coconut, vanilla, and oak to compliment the tang of the spices and a hint of hops, all wrapped in a smooth, round finish.", "name": "Pinchy Jeek Barl", "glass": {"createDate": "2012-01-03 02:41:33", "id": 6, "name": "Snifter"}, "createDate": "2013-11-18 12:22:01", "labels": {"large": "https://s3.amazonaws.com/brewerydbapi/beer/7lbAfD/upload_fcKhwN-large.png", "medium": "https://s3.amazonaws.com/brewerydbapi/beer/7lbAfD/upload_fcKhwN-medium.png", "icon": "https://s3.amazonaws.com/brewerydbapi/beer/7lbAfD/upload_fcKhwN-icon.png"}, "style": {"category": {"createDate": "2012-03-21 20:06:46", "id": 11, "name": "Hybrid/mixed Beer"}, "ogMin": "1.03", "description": "Pumpkin beers are any beers using pumpkins (Cucurbito pepo) as an adjunct in either mash, kettle, primary or secondary fermentation, providing obvious (ranging from subtle to intense), yet harmonious, qualities. Pumpkin qualities should not be overpowered by hop character. These may or may not be spiced or flavored with other things. A statement by the brewer explaining the nature of the beer is essential for fair assessment in competitions. If this beer is a classic style with pumpkin, the brewer should also specify the classic style.", "createDate": "2012-03-21 20:06:46", "ibuMin": "5", "categoryId": 11, "srmMax": "50", "ibuMax": "70", "abvMin": "2.5", "fgMin": "1.006", "fgMax": "1.03", "abvMax": "12", "id": 121, "srmMin": "5", "name": "Pumpkin Beer"}, "id": "7lbAfD", "statusDisplay": "Verified", "srmId": 25, "abv": "8.5", "styleId": 121, "availableId": 7, "foodPairings": "FOOD PAIRINGS:  Cranberry scones, roasted root vegetables, steak chili, pumpkin pie\r\nCHEESE PAIRINGS: Brie, Aged Cheddar", "ibu": "25", "srm": {"hex": "7B1A00", "id": 25, "name": "25"}, "glasswareId": 6}, {"status": "verified", "isOrganic": "N", "statusDisplay": "Verified", "createDate": "2012-01-03 02:43:58", "breweries": [{"status": "verified", "isOrganic": "N", "statusDisplay": "Verified", "createDate": "2012-01-03 02:41:59", "locations": [{"inPlanning": "N", "countryIsoCode": "US", "name": "Main Brewery", "locality": "Madison", "openToPublic": "Y", "locationType": "micro", "region": "Wisconsin", "longitude": -89.4736599, "isClosed": "Y", "phone": "608-274-1776", "streetAddress": "674 South Whitney Way", "createDate": "2012-01-03 02:41:59", "status": "verified", "updateDate": "2014-07-23 19:11:34", "country": {"displayName": "United States", "name": "UNITED STATES", "isoThree": "USA", "createDate": "2012-01-03 02:41:33", "numberCode": 840, "isoCode": "US"}, "postalCode": "53711", "latitude": 43.0526168, "isPrimary": "Y", "id": "TnKZHG", "locationTypeDisplay": "Micro Brewery", "statusDisplay": "Verified"}], "updateDate": "2012-03-21 19:06:07", "id": "4cySKj", "name": "JT Whitney's Brewpub and Eatery"}], "style": {"category": {"createDate": "2012-03-21 20:06:45", "id": 3, "name": "North American Origin Ales"}, "ogMin": "1.044", "description": "American pale ales range from deep golden to copper in color. The style is characterized by fruity, floral and citrus-like American-variety hop character producing medium to medium-high hop bitterness, flavor, and aroma. Note that the \"traditional\" style of this beer has its origins with certain floral, fruity, citrus-like, piney, resinous, or sulfur-like American hop varietals. One or more of these hop characters is the perceived end, but the perceived hop characters may be a result of the skillful use of hops of other national origins. American pale ales have medium body and low to medium maltiness. Low caramel character is allowable. Fruity-ester flavor and aroma should be moderate to strong. Diacetyl should be absent or present at very low levels. Chill haze is allowable at cold temperatures.", "createDate": "2012-03-21 20:06:45", "ibuMin": "30", "categoryId": 3, "srmMax": "14", "ibuMax": "42", "abvMin": "4.5", "fgMin": "1.008", "fgMax": "1.014", "abvMax": "5.6", "id": 25, "srmMin": "6", "name": "American-Style Pale Ale"}, "updateDate": "2012-03-22 13:04:50", "styleId": 25, "id": "xmaedo", "name": "Pinckney Street Pale Ale"}, {"status": "verified", "isOrganic": "N", "breweries": [{"website": "http://greenwolfales.com", "established": "2012", "isOrganic": "N", "description": "Green Wolf Brewing Company is a microbrewery located in scenic and historic Schoharie County. Our uncommon ales are crafted with love and attention to detail, using local ingredients whenever possible. Green Wolf strives to create an interconnected web of farmers, local businesses, and beer enthusiasts within New York State\u2019s Capital Region, so that we can build a thriving market for our artisan ales. We are slated to open in May of 2014.", "statusDisplay": "Verified", "createDate": "2014-03-17 09:34:45", "locations": [{"website": "http://greenwolfales.com", "inPlanning": "Y", "name": "Main Brewery", "locality": "Berne", "openToPublic": "N", "locationType": "micro", "region": "New York", "countryIsoCode": "US", "longitude": -74.2284704, "isClosed": "N", "latitude": 42.6218557, "streetAddress": "1234 Cotton Hill Rd", "createDate": "2014-03-17 09:35:40", "status": "verified", "updateDate": "2014-07-23 19:11:34", "country": {"displayName": "United States", "name": "UNITED STATES", "isoThree": "USA", "createDate": "2012-01-03 02:41:33", "numberCode": 840, "isoCode": "US"}, "postalCode": "12023", "isPrimary": "Y", "id": "qAUmbj", "locationTypeDisplay": "Micro Brewery", "statusDisplay": "Verified"}], "status": "verified", "updateDate": "2014-03-17 09:35:48", "images": {"large": "https://s3.amazonaws.com/brewerydbapi/brewery/biygO9/upload_SH4un0-large.png", "medium": "https://s3.amazonaws.com/brewerydbapi/brewery/biygO9/upload_SH4un0-medium.png", "icon": "https://s3.amazonaws.com/brewerydbapi/brewery/biygO9/upload_SH4un0-icon.png"}, "id": "biygO9", "name": "Green Wolf Brewing Co."}], "name": "Pindar's", "createDate": "2014-03-17 09:38:00", "labels": {"large": "https://s3.amazonaws.com/brewerydbapi/beer/BreVZi/upload_fNbeue-large.png", "medium": "https://s3.amazonaws.com/brewerydbapi/beer/BreVZi/upload_fNbeue-medium.png", "icon": "https://s3.amazonaws.com/brewerydbapi/beer/BreVZi/upload_fNbeue-icon.png"}, "style": {"category": {"createDate": "2012-03-21 20:06:45", "id": 3, "name": "North American Origin Ales"}, "ogMin": "1.075", "description": "Imperial or Double India Pale Ales have intense hop bitterness, flavor and aroma. Alcohol content is medium-high to high and notably evident. They range from deep golden to medium copper in color. The style may use any variety of hops. Though the hop character is intense it's balanced with complex alcohol flavors, moderate to high fruity esters and medium to high malt character. Hop character should be fresh and lively and should not be harsh in quality. The use of large amounts of hops may cause a degree of appropriate hop haze. Imperial or Double India Pale Ales have medium-high to full body. Diacetyl should not be perceived. The intention of this style of beer is to exhibit the fresh and bright character of hops. Oxidative character and aged character should not be present.", "createDate": "2012-03-21 20:06:45", "ibuMin": "65", "categoryId": 3, "srmMax": "13", "ibuMax": "100", "abvMin": "7.5", "fgMin": "1.012", "fgMax": "1.02", "abvMax": "10.5", "id": 31, "srmMin": "5", "name": "Imperial or Double India Pale Ale"}, "updateDate": "2014-03-18 09:07:57", "abv": "9", "styleId": 31, "id": "BreVZi", "statusDisplay": "Verified"}, {"status": "verified", "available": {"description": "Available year round as a staple beer.", "id": 1, "name": "Year Round"}, "isOrganic": "N", "breweries": [{"website": "http://www.southernstarbrewery.com/", "established": "2008", "isOrganic": "N", "description": "Located in Conroe, Texas, Southern Star Brewing Company will provide Texans(and others) new craft beers to enjoy from our 10,000 square foot warehouse. \r\n\r\nProduction began in March of 2008 with our signature beer of Pine Belt Pale Ale which is in our distinctive 16oz can or in kegs. This has now expanded to include Bombshell Blonde(12oz cans) and Buried Hatchet Stout(12oz cans), but both are also kegged. These will just be a few of the ales we will be offering as we expand into seasonal batches, plus we just started our PRO-AM line of brews where home brewers can compete to have their recipe produced at our brewery(with the help of the creators if they desire). The winning entry will also be entered into the GABF. \r\n\r\nThanks to the help of our five distributors, we are able to get our brews to a variety of locations(including grocery stores, beverage shops, pubs and restaurants) throughout Texas and a few other states including Alabama, Florida, Indiana, Kentucky, Ohio, and South Carolina. Unfortunately due to laws in Texas we can't tell you where you can buy our beers, but we are working at trying to get them to as many of your favorite craft beer establishments as possible.", "statusDisplay": "Verified", "createDate": "2012-01-03 02:42:08", "locations": [{"status": "verified", "openToPublic": "Y", "isPrimary": "Y", "hoursOfOperation": "We hold tours every Saturday at 1pm", "locationTypeDisplay": "Micro Brewery", "inPlanning": "N", "locality": "Conroe", "createDate": "2012-01-03 02:42:08", "id": "Yr1UcD", "streetAddress": "1207 N FM 3083 Rd E", "postalCode": "77303", "website": "http://www.southernstarbrewery.com/", "statusDisplay": "Verified", "yearOpened": "2008", "countryIsoCode": "US", "phone": "936-441-2739", "isClosed": "N", "name": "Main Brewery", "latitude": 30.3464, "locationType": "micro", "region": "Texas", "longitude": -95.433773, "updateDate": "2014-07-23 19:11:34", "country": {"displayName": "United States", "name": "UNITED STATES", "isoThree": "USA", "createDate": "2012-01-03 02:41:33", "numberCode": 840, "isoCode": "US"}}], "status": "verified", "updateDate": "2012-06-26 18:49:53", "images": {"large": "https://s3.amazonaws.com/brewerydbapi/brewery/Kp22MO/upload_TRPiPu-large.png", "medium": "https://s3.amazonaws.com/brewerydbapi/brewery/Kp22MO/upload_TRPiPu-medium.png", "icon": "https://s3.amazonaws.com/brewerydbapi/brewery/Kp22MO/upload_TRPiPu-icon.png"}, "id": "Kp22MO", "name": "Southern Star Brewing Company"}], "description": "A deep copper colored ale with a substantial malt backbone accented with British crystal malts with aggressive hop bitterness and substantial American hop flavor and aroma. The yeast profile is neutral.\r\n\r\nMalt:   Rahr special pale, Simpsons 30-37, Crisp 45\r\nHops:  Galena, CTZ, Nugget\r\nYeast: California Ale", "name": "Pine Belt Pale", "glass": {"createDate": "2012-01-03 02:41:33", "id": 5, "name": "Pint"}, "createDate": "2012-01-03 02:43:58", "labels": {"large": "https://s3.amazonaws.com/brewerydbapi/beer/fIagd8/upload_bGpeOO-large.png", "medium": "https://s3.amazonaws.com/brewerydbapi/beer/fIagd8/upload_bGpeOO-medium.png", "icon": "https://s3.amazonaws.com/brewerydbapi/beer/fIagd8/upload_bGpeOO-icon.png"}, "style": {"category": {"createDate": "2012-03-21 20:06:45", "id": 3, "name": "North American Origin Ales"}, "ogMin": "1.044", "description": "American pale ales range from deep golden to copper in color. The style is characterized by fruity, floral and citrus-like American-variety hop character producing medium to medium-high hop bitterness, flavor, and aroma. Note that the \"traditional\" style of this beer has its origins with certain floral, fruity, citrus-like, piney, resinous, or sulfur-like American hop varietals. One or more of these hop characters is the perceived end, but the perceived hop characters may be a result of the skillful use of hops of other national origins. American pale ales have medium body and low to medium maltiness. Low caramel character is allowable. Fruity-ester flavor and aroma should be moderate to strong. Diacetyl should be absent or present at very low levels. Chill haze is allowable at cold temperatures.", "createDate": "2012-03-21 20:06:45", "ibuMin": "30", "categoryId": 3, "srmMax": "14", "ibuMax": "42", "abvMin": "4.5", "fgMin": "1.008", "fgMax": "1.014", "abvMax": "5.6", "id": 25, "srmMin": "6", "name": "American-Style Pale Ale"}, "id": "fIagd8", "statusDisplay": "Verified", "updateDate": "2013-04-24 12:14:30", "abv": "6.3", "styleId": 25, "availableId": 1, "ibu": "45", "glasswareId": 5}, {"status": "verified", "isOrganic": "N", "statusDisplay": "Verified", "createDate": "2012-10-22 13:37:44", "breweries": [{"website": "http://www.yorkholobrewing.com/", "status": "verified", "isOrganic": "N", "statusDisplay": "Verified", "createDate": "2012-01-03 02:42:13", "locations": [{"status": "verified", "openToPublic": "Y", "isPrimary": "Y", "hoursOfOperation": "Mon - Thurs: 11:00 am - 11:00 pm\r\nFri - Sat: 11:00 am - 2:00 am\r\nSun: 10:00 am - 9:00 pm", "locationTypeDisplay": "Micro Brewery", "inPlanning": "N", "locality": "Mansfield", "createDate": "2012-01-03 02:42:13", "id": "vSGcZr", "streetAddress": "19 N Main St", "postalCode": "16933", "website": "http://www.yorkholobrewing.com/", "statusDisplay": "Verified", "countryIsoCode": "US", "phone": "570-662-0241", "isClosed": "N", "name": "Main Brewery", "latitude": 41.8076579, "locationType": "micro", "region": "Pennsylvania", "longitude": -77.0783015, "updateDate": "2014-07-23 19:11:34", "country": {"displayName": "United States", "name": "UNITED STATES", "isoThree": "USA", "createDate": "2012-01-03 02:41:33", "numberCode": 840, "isoCode": "US"}}], "updateDate": "2012-10-22 13:36:30", "id": "weh9vF", "name": "Yorkholo Brewing Co."}], "updateDate": "2012-10-22 13:37:44", "abv": "5", "id": "6dTQPb", "name": "Pine Creek Raspberry Wheat"}, {"status": "verified", "isOrganic": "N", "breweries": [{"website": "http://www.sabmiller.com/", "established": "1895", "isOrganic": "N", "description": "In 1873, as the United States approached its centennial year, its people were busy building a new kind of nation. It was thirsty work. And that's where Coors Brewing Company came in. When we began in that same year, we were a small, family-owned brewery, located at the foot of the Rocky Mountains. We were busy creating the same kind of crisp, refreshing beer we're known for today. While hundreds of such family-owned breweries have come and gone in the years since, we believe the reasons for our success are simple. We've never compromised on quality in producing our award-winning brews and we've never lost sight of our rich Rocky Mountain heritage. Just as important, we've always believed in doing well by doing good. We treat our employees with respect, we support the local communities where we do business, and we strive to protect the environment. That's just how we do business.", "statusDisplay": "Verified", "createDate": "2012-01-03 02:41:51", "locations": [{"status": "verified", "openToPublic": "Y", "isPrimary": "Y", "id": "JZk4BM", "locationTypeDisplay": "Macro Brewery", "inPlanning": "N", "locality": "Golden", "createDate": "2012-01-03 02:41:51", "streetAddress": "311 Tenth Street", "postalCode": "80401", "website": "http://www.coors.com/", "statusDisplay": "Verified", "yearOpened": "1873", "countryIsoCode": "US", "phone": "1-866-812-2337", "isClosed": "N", "name": "Golden Brewery", "latitude": 39.759876, "locationType": "macro", "region": "Colorado", "longitude": -105.219026, "updateDate": "2014-07-23 19:11:34", "country": {"displayName": "United States", "name": "UNITED STATES", "isoThree": "USA", "createDate": "2012-01-03 02:41:33", "numberCode": 840, "isoCode": "US"}}, {"status": "verified", "openToPublic": "N", "isPrimary": "N", "id": "LKzaHC", "locationTypeDisplay": "Production Facility", "inPlanning": "N", "locality": "Elkton", "createDate": "2013-09-21 20:40:25", "streetAddress": "5135 South East Side Hwy", "postalCode": "22827", "website": "http://www.millercoors.com/", "statusDisplay": "Verified", "yearOpened": "2007", "countryIsoCode": "US", "phone": "(540) 289-8201", "isClosed": "N", "name": "Shenandoah Facility", "latitude": 38.3568877, "locationType": "production", "region": "Virginia", "longitude": -78.6765693, "updateDate": "2014-07-23 19:11:34", "country": {"displayName": "United States", "name": "UNITED STATES", "isoThree": "USA", "createDate": "2012-01-03 02:41:33", "numberCode": 840, "isoCode": "US"}}, {"status": "verified", "openToPublic": "N", "isPrimary": "N", "id": "AhsRDX", "locationTypeDisplay": "Production Facility", "inPlanning": "N", "locality": "Albany", "createDate": "2014-04-18 13:46:11", "streetAddress": "405 Cordele Road", "latitude": 31.5927553, "website": "http://www.millercoors.com/", "statusDisplay": "Verified", "yearOpened": "1979", "countryIsoCode": "US", "postalCode": "31705", "isClosed": "N", "name": "Albany Brewery", "locationType": "production", "region": "Georgia", "longitude": -84.0879927, "updateDate": "2014-07-23 19:11:34", "country": {"displayName": "United States", "name": "UNITED STATES", "isoThree": "USA", "createDate": "2012-01-03 02:41:33", "numberCode": 840, "isoCode": "US"}}, {"status": "verified", "openToPublic": "N", "isPrimary": "N", "id": "n1bFMy", "locationTypeDisplay": "Office", "inPlanning": "N", "locality": "Chicago", "createDate": "2014-04-18 13:46:55", "streetAddress": "250 South Wacker Drive", "latitude": 41.8785888, "website": "http://www.millercoors.com/", "statusDisplay": "Verified", "yearOpened": "2009", "countryIsoCode": "US", "postalCode": "60606", "isClosed": "N", "name": "Chicago Headquarters", "locationType": "office", "region": "Illinois", "longitude": -87.6371, "updateDate": "2014-07-23 19:11:34", "country": {"displayName": "United States", "name": "UNITED STATES", "isoThree": "USA", "createDate": "2012-01-03 02:41:33", "numberCode": 840, "isoCode": "US"}}, {"status": "verified", "openToPublic": "N", "isPrimary": "N", "id": "PLK3WP", "locationTypeDisplay": "Production Facility", "inPlanning": "N", "locality": "Eden", "createDate": "2014-04-18 13:47:40", "streetAddress": "863 E. Meadow Road", "latitude": 36.5179677, "website": "http://www.millercoors.com/", "statusDisplay": "Verified", "yearOpened": "1978", "countryIsoCode": "US", "postalCode": "27289", "isClosed": "N", "name": "Eden Brewery", "locationType": "production", "region": "North Carolina", "longitude": -79.7150607, "updateDate": "2014-07-23 19:11:34", "country": {"displayName": "United States", "name": "UNITED STATES", "isoThree": "USA", "createDate": "2012-01-03 02:41:33", "numberCode": 840, "isoCode": "US"}}, {"status": "verified", "openToPublic": "N", "isPrimary": "N", "id": "1f2rfq", "locationTypeDisplay": "Production Facility", "inPlanning": "N", "locality": "Fort Worth", "createDate": "2014-04-18 13:48:23", "streetAddress": "7001 South Freeway", "latitude": 32.6433233, "website": "http://www.millercoors.com/", "statusDisplay": "Verified", "yearOpened": "1966", "countryIsoCode": "US", "postalCode": "76134", "isClosed": "N", "name": "Fort Worth Brewery", "locationType": "production", "region": "Texas", "longitude": -97.3198541, "updateDate": "2014-07-23 19:11:34", "country": {"displayName": "United States", "name": "UNITED STATES", "isoThree": "USA", "createDate": "2012-01-03 02:41:33", "numberCode": 840, "isoCode": "US"}}, {"website": "http://www.millercoors.com/", "inPlanning": "N", "name": "Golden Office", "locality": "Golden", "openToPublic": "N", "locationType": "office", "region": "Colorado", "countryIsoCode": "US", "longitude": -105.200336, "isClosed": "N", "latitude": 39.7651047, "streetAddress": "17735 West 32nd Ave", "createDate": "2014-04-18 13:49:19", "status": "verified", "updateDate": "2014-07-23 19:11:34", "country": {"displayName": "United States", "name": "UNITED STATES", "isoThree": "USA", "createDate": "2012-01-03 02:41:33", "numberCode": 840, "isoCode": "US"}, "postalCode": "80401", "isPrimary": "N", "id": "GIUTyi", "locationTypeDisplay": "Office", "statusDisplay": "Verified"}, {"status": "verified", "openToPublic": "N", "isPrimary": "N", "id": "scDI89", "locationTypeDisplay": "Production Facility", "inPlanning": "N", "locality": "Irwindale", "createDate": "2014-04-18 13:51:02", "streetAddress": "15801 East First Street", "latitude": 34.1216703, "website": "http://www.millercoors.com/", "statusDisplay": "Verified", "yearOpened": "1980", "countryIsoCode": "US", "postalCode": "91706", "isClosed": "N", "name": "Irwindale Brewery", "locationType": "production", "region": "California", "longitude": -117.9382061, "updateDate": "2014-07-23 19:11:34", "country": {"displayName": "United States", "name": "UNITED STATES", "isoThree": "USA", "createDate": "2012-01-03 02:41:33", "numberCode": 840, "isoCode": "US"}}, {"website": "http://www.millercoors.com/", "inPlanning": "N", "name": "Milwaukee Office", "locality": "Milwaukee", "openToPublic": "N", "locationType": "office", "region": "Wisconsin", "countryIsoCode": "US", "longitude": -87.961934, "isClosed": "N", "latitude": 43.043906, "streetAddress": "3939 West Highland Blvd", "createDate": "2014-04-18 13:51:41", "status": "verified", "updateDate": "2014-07-23 19:11:34", "country": {"displayName": "United States", "name": "UNITED STATES", "isoThree": "USA", "createDate": "2012-01-03 02:41:33", "numberCode": 840, "isoCode": "US"}, "postalCode": "53208", "isPrimary": "N", "id": "Uvw6Ha", "locationTypeDisplay": "Office", "statusDisplay": "Verified"}, {"status": "verified", "openToPublic": "Y", "isPrimary": "N", "id": "7FeuR1", "locationTypeDisplay": "Production Facility", "inPlanning": "N", "locality": "Milwaukee", "createDate": "2014-04-18 13:52:24", "streetAddress": "4000 West State Street", "latitude": 43.0422255, "website": "http://www.millercoors.com/", "statusDisplay": "Verified", "yearOpened": "1855", "countryIsoCode": "US", "postalCode": "53208", "isClosed": "N", "name": "Milwaukee Brewery", "locationType": "production", "region": "Wisconsin", "longitude": -87.9631211, "updateDate": "2014-07-23 19:11:34", "country": {"displayName": "United States", "name": "UNITED STATES", "isoThree": "USA", "createDate": "2012-01-03 02:41:33", "numberCode": 840, "isoCode": "US"}}, {"status": "verified", "openToPublic": "N", "isPrimary": "N", "id": "jZNiaS", "locationTypeDisplay": "Production Facility", "inPlanning": "N", "locality": "Trenton", "createDate": "2014-04-18 13:54:13", "streetAddress": "2525 Wayne Madison Road", "latitude": 39.457537, "website": "http://www.millercoors.com/", "statusDisplay": "Verified", "yearOpened": "1991", "countryIsoCode": "US", "postalCode": "45067", "isClosed": "N", "name": "Trenton Brewery", "locationType": "production", "region": "Ohio", "longitude": -84.485393, "updateDate": "2014-07-23 19:11:34", "country": {"displayName": "United States", "name": "UNITED STATES", "isoThree": "USA", "createDate": "2012-01-03 02:41:33", "numberCode": 840, "isoCode": "US"}}, {"status": "verified", "openToPublic": "N", "isPrimary": "N", "id": "Lt6Wjt", "locationTypeDisplay": "Production Facility", "inPlanning": "N", "locality": "Watertown", "createDate": "2014-04-18 13:55:40", "streetAddress": "1224 American Way", "latitude": 43.177416, "website": "http://www.watertownhops.com/", "statusDisplay": "Verified", "yearOpened": "1989", "countryIsoCode": "US", "postalCode": "53094", "isClosed": "N", "name": "Watertown Hops Company", "locationType": "production", "region": "Wisconsin", "longitude": -88.760608, "updateDate": "2014-07-23 19:11:34", "country": {"displayName": "United States", "name": "UNITED STATES", "isoThree": "USA", "createDate": "2012-01-03 02:41:33", "numberCode": 840, "isoCode": "US"}}], "status": "verified", "updateDate": "2014-07-11 23:28:37", "images": {"large": "https://s3.amazonaws.com/brewerydbapi/brewery/avMkil/upload_zHTNq2-large.png", "medium": "https://s3.amazonaws.com/brewerydbapi/brewery/avMkil/upload_zHTNq2-medium.png", "icon": "https://s3.amazonaws.com/brewerydbapi/brewery/avMkil/upload_zHTNq2-icon.png"}, "id": "avMkil", "name": "Coors Brewing Company"}], "name": "Pine in the Neck", "statusDisplay": "Verified", "createDate": "2014-01-16 18:35:28", "labels": {"large": "https://s3.amazonaws.com/brewerydbapi/beer/cDFKpA/upload_Ir2y0e-large.png", "medium": "https://s3.amazonaws.com/brewerydbapi/beer/cDFKpA/upload_Ir2y0e-medium.png", "icon": "https://s3.amazonaws.com/brewerydbapi/beer/cDFKpA/upload_Ir2y0e-icon.png"}, "style": {"category": {"createDate": "2012-03-21 20:06:45", "id": 3, "name": "North American Origin Ales"}, "ogMin": "1.06", "description": "American-style India pale ales are perceived to have medium-high to intense hop bitterness, flavor and aroma with medium-high alcohol content. The style is further characterized by floral, fruity, citrus-like, piney, resinous, or sulfur-like American-variety hop character. Note that one or more of these American-variety hop characters is the perceived end, but the hop characters may be a result of the skillful use of hops of other national origins. The use of water with high mineral content results in a crisp, dry beer. This pale gold to deep copper-colored ale has a full, flowery hop aroma and may have a strong hop flavor (in addition to the perception of hop bitterness). India pale ales possess medium maltiness which contributes to a medium body. Fruity-ester flavors and aromas are moderate to very strong. Diacetyl can be absent or may be perceived at very low levels. Chill and/or hop haze is allowable at cold temperatures. (English and citrus-like American hops are considered enough of a distinction justifying separate American-style IPA and English-style IPA categories or subcategories. Hops of other origins may be used for bitterness or approximating traditional American or English character. See English-style India Pale Ale", "createDate": "2012-03-21 20:06:45", "ibuMin": "50", "categoryId": 3, "srmMax": "14", "ibuMax": "70", "abvMin": "6.3", "fgMin": "1.012", "fgMax": "1.018", "abvMax": "7.5", "id": 30, "srmMin": "6", "name": "American-Style India Pale Ale"}, "glass": {"createDate": "2012-01-03 02:41:33", "id": 5, "name": "Pint"}, "updateDate": "2014-01-16 18:46:25", "abv": "7.5", "styleId": 30, "id": "cDFKpA", "glasswareId": 5}, {"status": "verified", "available": {"description": "Available year round as a staple beer.", "id": 1, "name": "Year Round"}, "isOrganic": "N", "breweries": [{"website": "http://www.rochestermillsbeerco.com/", "established": "1998", "isOrganic": "N", "description": "The Rochester Mills Beer Co. opened in 1998 in Downtown Rochester. Located in the historic Western Knitting Mill, the brewery is located on Water Street, just two blocks east of Main Street. Preserving the original character of the building, the brewery features original hardwood floors, columns, beams and exposed brick walls. The menu features a broad selection of eclectic American cuisine, all prepared with the freshest ingredients. From delectable appetizers, fresh salads, pizzas and pastas to delicious entrees and unique sandwiches, the menu has something for everyone and a kids menu is available. Special amenities include an outdoor patio, pool tables,  Greenhorn Music Night every Thursday starting at 9pm, and live entertainment every Friday, and Saturday nights starting at 10pm. The Martini Lounge is available for private parties.", "statusDisplay": "Verified", "createDate": "2012-01-03 02:42:07", "locations": [{"status": "verified", "openToPublic": "Y", "isPrimary": "Y", "hoursOfOperation": "Monday:\t11:30am-12:00am\r\nTuesday:\t11:30am-12:00am\r\nWednesday:\t11:30am-12:00am\r\nThursday:\t11:30am-1:00am\r\nFriday:\t11:30am-2:00am\r\nSaturday:\t11:30am-2:00am\r\nSunday:\t12:00pm-12:00am", "locationTypeDisplay": "Micro Brewery", "inPlanning": "N", "locality": "Rochester", "createDate": "2012-01-03 02:42:07", "id": "MEZupX", "streetAddress": "400 Water St.", "postalCode": "48307", "website": "http://www.rochestermillsbeerco.com/", "statusDisplay": "Verified", "yearOpened": "1998", "countryIsoCode": "US", "phone": "248-650-5080", "isClosed": "N", "name": "Main Brewery", "latitude": 42.6804798, "locationType": "micro", "region": "Michigan", "longitude": -83.1312141, "updateDate": "2014-07-23 19:11:34", "country": {"displayName": "United States", "name": "UNITED STATES", "isoThree": "USA", "createDate": "2012-01-03 02:41:33", "numberCode": 840, "isoCode": "US"}}, {"inPlanning": "N", "countryIsoCode": "US", "name": "Main Brewery", "locality": "Rochester", "openToPublic": "Y", "locationType": "micro", "region": "Michigan", "longitude": -83.13702, "isClosed": "N", "createDate": "2012-07-25 23:05:30", "status": "deleted", "updateDate": "2014-07-23 19:11:34", "country": {"displayName": "United States", "name": "UNITED STATES", "isoThree": "USA", "createDate": "2012-01-03 02:41:33", "numberCode": 840, "isoCode": "US"}, "latitude": 42.683259, "isPrimary": "N", "id": "7BbeYu", "locationTypeDisplay": "Micro Brewery", "statusDisplay": "Deleted"}], "status": "verified", "updateDate": "2012-07-27 12:13:08", "images": {"large": "https://s3.amazonaws.com/brewerydbapi/brewery/sbVFqO/upload_lytD7n-large.png", "medium": "https://s3.amazonaws.com/brewerydbapi/brewery/sbVFqO/upload_lytD7n-medium.png", "icon": "https://s3.amazonaws.com/brewerydbapi/brewery/sbVFqO/upload_lytD7n-icon.png"}, "id": "sbVFqO", "name": "Rochester Mills Beer Company"}], "name": "Pine Knob Pilsner", "statusDisplay": "Verified", "createDate": "2014-05-13 11:42:32", "labels": {"large": "https://s3.amazonaws.com/brewerydbapi/beer/TjiWmd/upload_Arx1mC-large.png", "medium": "https://s3.amazonaws.com/brewerydbapi/beer/TjiWmd/upload_Arx1mC-medium.png", "icon": "https://s3.amazonaws.com/brewerydbapi/beer/TjiWmd/upload_Arx1mC-icon.png"}, "originalGravity": "1.052", "id": "TjiWmd", "glass": {"createDate": "2012-01-03 02:41:33", "id": 4, "name": "Pilsner"}, "style": {"category": {"createDate": "2012-03-21 20:06:46", "id": 7, "name": "European-germanic Lager"}, "ogMin": "1.044", "description": "Traditional Bohemian Pilseners are medium bodied, and they can be as dark as a light amber color. This style balances moderate bitterness and noble-type hop aroma and flavor with a malty, slightly sweet, medium body. Extremely low levels of diacetyl and low levels of sweet corn-like dimethylsulfide (DMS) character, if perceived, are characteristic of this style and both may accent malt aroma. A toasted-, biscuit-like, bready malt character along with low levels of sulfur compounds may be evident. There should be no chill haze. Its head should be dense and rich.", "createDate": "2012-03-21 20:06:46", "ibuMin": "30", "categoryId": 7, "srmMax": "7", "ibuMax": "45", "abvMin": "4", "fgMin": "1.014", "fgMax": "1.02", "abvMax": "5", "id": 76, "srmMin": "3", "name": "Bohemian-Style Pilsener"}, "updateDate": "2014-09-10 20:42:59", "abv": "5.5", "styleId": 76, "availableId": 1, "ibu": "25", "glasswareId": 4}, {"status": "verified", "available": {"description": "Available year round as a staple beer.", "id": 1, "name": "Year Round"}, "isOrganic": "N", "breweries": [{"website": "http://cascadelakes.com/", "established": "1994", "isOrganic": "N", "description": "Cascade Lakes Brewing Company started in 1994 by three enthusiastic brothers looking for an exciting business in beautiful, sunny Central Oregon.  They spent many long nights building most of the current brewing equipment by hand and coming up with tasty recipies.  More than ten years later, the long nights and quest for great beer has continued on a much larger scale.  In the winter of 2000, Cascade Lakes Brewing Company was purchased by Rick Orazetti and Doug Kutella.  Recently, Ron Kutella and Chris Justema joined the parternship and what started as one brewing facility in an airport industrial zone has turned into 7th Street Brew House, Tumalo Tavern, Cascade West Grub and Alehouse, and our flagship restaurant in Bend, Cascade Lakes Lodge.", "statusDisplay": "Verified", "createDate": "2012-01-03 02:41:50", "locations": [{"status": "verified", "openToPublic": "Y", "isPrimary": "N", "id": "O2ScDy", "locationTypeDisplay": "Micro Brewery", "inPlanning": "N", "locality": "Redmond", "createDate": "2012-01-03 02:41:50", "streetAddress": "2141 SW First Street", "postalCode": "97756", "website": "http://cascadelakes.com/", "statusDisplay": "Verified", "yearOpened": "1994", "countryIsoCode": "US", "phone": "541-923-3110", "isClosed": "N", "name": "Main Brewery", "latitude": 44.256031, "locationType": "micro", "region": "Oregon", "longitude": -121.169251, "updateDate": "2014-07-23 19:11:34", "country": {"displayName": "United States", "name": "UNITED STATES", "isoThree": "USA", "createDate": "2012-01-03 02:41:33", "numberCode": 840, "isoCode": "US"}}, {"status": "verified", "openToPublic": "Y", "isPrimary": "N", "hoursOfOperation": "Mon:  11:30am - 11:00pm\nTue:  11:30am - 11:00pm\nWed:  11:30am - 11:00pm\nThu:  11:30am - 11:00pm\nFri:  11:30am - 12:00am\nSat:  11:30am - 12:00am\nSun:  12:00pm - 9:00pm\n\nOpen Monday \u2013 Thursday 11:30 am \u2013 11:00 pm\r\nFriday- Saturday 11:30 am \u2013 12:00 am\r\nSunday 12:00 pm \u2013 9:00 pm", "locationTypeDisplay": "Restaurant/Ale House", "inPlanning": "N", "locality": "Redmond", "createDate": "2012-10-23 14:05:35", "id": "C7u6RO", "streetAddress": "855 SW 7th Street", "postalCode": "97756", "website": "http://www.cascadelakes.com/pubs/7th-street/", "statusDisplay": "Verified", "yearOpened": "1996", "countryIsoCode": "US", "phone": "541-923-1795", "isClosed": "N", "name": "7th Street Brew House", "latitude": 44.268783, "locationType": "restaurant", "region": "Oregon", "longitude": -121.175632, "updateDate": "2014-09-29 20:12:08", "country": {"displayName": "United States", "name": "UNITED STATES", "isoThree": "USA", "createDate": "2012-01-03 02:41:33", "numberCode": 840, "isoCode": "US"}}, {"status": "verified", "openToPublic": "Y", "isPrimary": "N", "hoursOfOperation": "Open 11:30 am seven days a week\r\n\r\nBar closes at 12:00 am Sunday \u2013 Thursday, 1:00 am Friday and Saturday", "locationTypeDisplay": "Restaurant/Ale House", "inPlanning": "N", "locality": "Bend", "createDate": "2012-10-23 14:06:49", "id": "oRcuap", "streetAddress": "1441 SW Chandler Ave Suite 100", "postalCode": "97702", "website": "http://www.cascadelakes.com/pubs/lodge/", "statusDisplay": "Verified", "countryIsoCode": "US", "phone": "541-388-4998", "isClosed": "N", "name": "Cascade Lakes Lodge", "latitude": 44.041604, "locationType": "restaurant", "region": "Oregon", "longitude": -121.332722, "updateDate": "2014-09-29 20:12:08", "country": {"displayName": "United States", "name": "UNITED STATES", "isoThree": "USA", "createDate": "2012-01-03 02:41:33", "numberCode": 840, "isoCode": "US"}}, {"status": "verified", "openToPublic": "Y", "isPrimary": "N", "hoursOfOperation": "Mon:  11:00am - 12:00am\nTue:  11:00am - 12:00am\nWed:  11:00am - 12:00am\nThu:  11:00am - 12:00am\nFri:  11:00am - 12:00am\nSat:  11:00am - 12:00am\nSun:  11:00am - 12:00am\n\nOpen seven days a week from 11:00 am to 12:00 am", "locationTypeDisplay": "Restaurant/Ale House", "inPlanning": "N", "locality": "Bend", "createDate": "2012-10-23 14:07:57", "id": "QlLikG", "streetAddress": "64670 Stricker #103", "postalCode": "97701", "website": "http://www.cascadelakes.com/pubs/tumalo-tavern/", "statusDisplay": "Verified", "yearOpened": "2002", "countryIsoCode": "US", "phone": "541.330.2323", "isClosed": "N", "name": "Tumalo Tavern", "latitude": 44.148158, "locationType": "restaurant", "region": "Oregon", "longitude": -121.333679, "updateDate": "2014-09-29 20:12:09", "country": {"displayName": "United States", "name": "UNITED STATES", "isoThree": "USA", "createDate": "2012-01-03 02:41:33", "numberCode": 840, "isoCode": "US"}}, {"status": "verified", "openToPublic": "Y", "isPrimary": "N", "hoursOfOperation": "Sun:  11:00am - 12:00pm\nFri:  11:00am - 1:00am\nSat:  11:00am - 1:00am\n\nOpen seven days a week\r\n\r\nSunday \u2013 Thursday from 11:00 am \u2013 12:00 pm\r\n\r\nFriday \u2013 Saturday from 11:00 am \u2013 1:00 am", "locationTypeDisplay": "Restaurant/Ale House", "inPlanning": "N", "locality": "Bend", "createDate": "2012-10-23 14:08:50", "id": "354Wth", "streetAddress": "64 SW Century Drive", "postalCode": "97702", "website": "http://www.cascadelakes.com/pubs/cascade-west/", "statusDisplay": "Verified", "countryIsoCode": "US", "phone": "541-389-1853", "isClosed": "N", "name": "Cascade West", "latitude": 44.0504569, "locationType": "restaurant", "region": "Oregon", "longitude": -121.3313758, "updateDate": "2014-09-29 20:12:10", "country": {"displayName": "United States", "name": "UNITED STATES", "isoThree": "USA", "createDate": "2012-01-03 02:41:33", "numberCode": 840, "isoCode": "US"}}, {"status": "verified", "openToPublic": "Y", "isPrimary": "Y", "id": "fOnL38", "locationTypeDisplay": "Restaurant/Ale House", "inPlanning": "N", "locality": "Redmond", "createDate": "2012-10-23 14:09:33", "streetAddress": "3716 SW 21st Place", "latitude": 44.241805, "website": "http://www.cascadelakes.com/pubs/red-dog-depot/", "statusDisplay": "Verified", "yearOpened": "2007", "countryIsoCode": "US", "postalCode": "97756", "isClosed": "N", "name": "Red Dog Depot", "locationType": "restaurant", "region": "Oregon", "longitude": -121.190974, "updateDate": "2014-07-23 19:11:34", "country": {"displayName": "United States", "name": "UNITED STATES", "isoThree": "USA", "createDate": "2012-01-03 02:41:33", "numberCode": 840, "isoCode": "US"}}], "status": "verified", "updateDate": "2012-10-23 14:12:33", "images": {"large": "https://s3.amazonaws.com/brewerydbapi/brewery/sIBGId/upload_qhACFI-large.png", "medium": "https://s3.amazonaws.com/brewerydbapi/brewery/sIBGId/upload_qhACFI-medium.png", "icon": "https://s3.amazonaws.com/brewerydbapi/brewery/sIBGId/upload_qhACFI-icon.png"}, "id": "sIBGId", "name": "Cascade Lakes Brewing Company"}], "description": "This beer has a floral hop aroma to die for and a medium bodied malty character that brings terrific balance.  A significant amount of time and effort has gone into perfecting this anytime adult beverage refreshment!", "name": "Pine Marten Pale Ale", "glass": {"createDate": "2012-01-03 02:41:33", "id": 5, "name": "Pint"}, "createDate": "2012-01-03 02:43:58", "labels": {"large": "https://s3.amazonaws.com/brewerydbapi/beer/PTuM1L/upload_LegJDS-large.png", "medium": "https://s3.amazonaws.com/brewerydbapi/beer/PTuM1L/upload_LegJDS-medium.png", "icon": "https://s3.amazonaws.com/brewerydbapi/beer/PTuM1L/upload_LegJDS-icon.png"}, "style": {"category": {"createDate": "2012-03-21 20:06:45", "id": 3, "name": "North American Origin Ales"}, "ogMin": "1.044", "description": "American pale ales range from deep golden to copper in color. The style is characterized by fruity, floral and citrus-like American-variety hop character producing medium to medium-high hop bitterness, flavor, and aroma. Note that the \"traditional\" style of this beer has its origins with certain floral, fruity, citrus-like, piney, resinous, or sulfur-like American hop varietals. One or more of these hop characters is the perceived end, but the perceived hop characters may be a result of the skillful use of hops of other national origins. American pale ales have medium body and low to medium maltiness. Low caramel character is allowable. Fruity-ester flavor and aroma should be moderate to strong. Diacetyl should be absent or present at very low levels. Chill haze is allowable at cold temperatures.", "createDate": "2012-03-21 20:06:45", "ibuMin": "30", "categoryId": 3, "srmMax": "14", "ibuMax": "42", "abvMin": "4.5", "fgMin": "1.008", "fgMax": "1.014", "abvMax": "5.6", "id": 25, "srmMin": "6", "name": "American-Style Pale Ale"}, "id": "PTuM1L", "statusDisplay": "Verified", "updateDate": "2012-03-22 13:05:20", "abv": "5.1", "styleId": 25, "availableId": 1, "ibu": "38", "glasswareId": 5}], "numberOfPages": 683}